{"type":"FeatureCollection","features":[{"type":"Feature","properties":{"UserID":0,"区域站级别":"骨干站","OBTID":"P8696","OBTName":"天塘","CityName":"郴州市","CountyName":"宜章县","Height":277.0,"TownShipName":"天塘镇","Lon":112.811111,"Lat":25.102778,"remark":""},"geometry":{"type":"Point","coordinates":[112.811111,25.102778]}},{"type":"Feature","properties":{"UserID":0,"区域站级别":"骨干站","OBTID":"P8697","OBTName":"林子坪水库","CityName":"郴州市","CountyName":"宜章县","Height":1253.0,"TownShipName":"莽山瑶族乡","Lon":112.934722,"Lat":24.95,"remark":""},"geometry":{"type":"Point","coordinates":[112.934722,24.95]}},{"type":"Feature","properties":{"UserID":0,"区域站级别":"骨干站","OBTID":"P8701","OBTName":"栗源","CityName":"郴州市","CountyName":"宜章县","Height":210.0,"TownShipName":"栗源镇","Lon":112.948889,"Lat":25.231111,"remark":""},"geometry":{"type":"Point","coordinates":[112.948889,25.231111]}},{"type":"Feature","properties":{"UserID":0,"区域站级别":"骨干站","OBTID":"P8706","OBTName":"杨梅山","CityName":"郴州市","CountyName":"宜章县","Height":350.0,"TownShipName":"杨梅山镇","Lon":113.1175,"Lat":25.47,"remark":""},"geometry":{"type":"Point","coordinates":[113.1175,25.47]}},{"type":"Feature","properties":{"UserID":0,"区域站级别":"骨干站","OBTID":"P5834","OBTName":"下村","CityName":"株洲市","CountyName":"炎陵县","Height":78.0,"TownShipName":"下村乡","Lon":113.908056,"Lat":26.223889,"remark":""},"geometry":{"type":"Point","coordinates":[113.908056,26.223889]}},{"type":"Feature","properties":{"UserID":0,"区域站级别":"骨干站","OBTID":"P7232","OBTName":"蔡伦竹海","CityName":"衡阳市","CountyName":"耒阳市","Height":405.0,"TownShipName":"黄市镇","Lon":112.983056,"Lat":26.201389,"remark":""},"geometry":{"type":"Point","coordinates":[112.983056,26.201389]}},{"type":"Feature","properties":{"UserID":0,"区域站级别":"骨干站","OBTID":"P7187","OBTName":"向阳高岭","CityName":"衡阳市","CountyName":"衡南县","Height":117.0,"TownShipName":"向阳街道","Lon":112.696389,"Lat":26.616944,"remark":""},"geometry":{"type":"Point","coordinates":[112.696389,26.616944]}},{"type":"Feature","properties":{"UserID":0,"区域站级别":"骨干站","OBTID":"P3622","OBTName":"羊楼司","CityName":"岳阳市","CountyName":"临湘市","Height":98.0,"TownShipName":"羊楼司镇","Lon":113.621667,"Lat":29.504444,"remark":""},"geometry":{"type":"Point","coordinates":[113.621667,29.504444]}},{"type":"Feature","properties":{"UserID":0,"区域站级别":"骨干站","OBTID":"P3641","OBTName":"源潭","CityName":"岳阳市","CountyName":"临湘市","Height":57.0,"TownShipName":"聂市镇","Lon":113.5075,"Lat":29.635556,"remark":""},"geometry":{"type":"Point","coordinates":[113.5075,29.635556]}},{"type":"Feature","properties":{"UserID":0,"区域站级别":"骨干站","OBTID":"P3661","OBTName":"隆庆莲场","CityName":"岳阳市","CountyName":"华容县","Height":36.0,"TownShipName":"注滋口镇","Lon":112.704722,"Lat":29.203333,"remark":""},"geometry":{"type":"Point","coordinates":[112.704722,29.203333]}},{"type":"Feature","properties":{"UserID":0,"区域站级别":"骨干站","OBTID":"P3636","OBTName":"沱龙峡","CityName":"岳阳市","CountyName":"平江县","Height":142.0,"TownShipName":"加义镇","Lon":113.841667,"Lat":28.590833,"remark":""},"geometry":{"type":"Point","coordinates":[113.841667,28.590833]}},{"type":"Feature","properties":{"UserID":0,"区域站级别":"骨干站","OBTID":"P3124","OBTName":"秋湖水库","CityName":"岳阳市","CountyName":"平江县","Height":130.0,"TownShipName":"安定镇","Lon":113.5975,"Lat":28.556944,"remark":""},"geometry":{"type":"Point","coordinates":[113.5975,28.556944]}},{"type":"Feature","properties":{"UserID":0,"区域站级别":"骨干站","OBTID":"P3117","OBTName":"大江洞水库","CityName":"岳阳市","CountyName":"平江县","Height":275.0,"TownShipName":"南江镇","Lon":113.7825,"Lat":28.921944,"remark":""},"geometry":{"type":"Point","coordinates":[113.7825,28.921944]}},{"type":"Feature","properties":{"UserID":0,"区域站级别":"骨干站","OBTID":"P3512","OBTName":"伍市","CityName":"岳阳市","CountyName":"平江县","Height":32.0,"TownShipName":"伍市镇","Lon":113.2425,"Lat":28.749722,"remark":""},"geometry":{"type":"Point","coordinates":[113.2425,28.749722]}},{"type":"Feature","properties":{"UserID":0,"区域站级别":"骨干站","OBTID":"P3511","OBTName":"瓮江","CityName":"岳阳市","CountyName":"平江县","Height":98.0,"TownShipName":"瓮江镇","Lon":113.424722,"Lat":28.69,"remark":""},"geometry":{"type":"Point","coordinates":[113.424722,28.69]}},{"type":"Feature","properties":{"UserID":0,"区域站级别":"骨干站","OBTID":"P3664","OBTName":"金龙","CityName":"岳阳市","CountyName":"湘阴县","Height":48.0,"TownShipName":"金龙镇","Lon":112.944167,"Lat":28.528333,"remark":""},"geometry":{"type":"Point","coordinates":[112.944167,28.528333]}},{"type":"Feature","properties":{"UserID":0,"区域站级别":"骨干站","OBTID":"P3529","OBTName":"杨林寨","CityName":"岳阳市","CountyName":"湘阴县","Height":37.0,"TownShipName":"杨林寨乡","Lon":112.774444,"Lat":28.708611,"remark":""},"geometry":{"type":"Point","coordinates":[112.774444,28.708611]}},{"type":"Feature","properties":{"UserID":0,"区域站级别":"骨干站","OBTID":"P3514","OBTName":"兰家洞水库","CityName":"岳阳市","CountyName":"汨罗市","Height":115.0,"TownShipName":"三江镇","Lon":113.374167,"Lat":28.878333,"remark":""},"geometry":{"type":"Point","coordinates":[113.374167,28.878333]}},{"type":"Feature","properties":{"UserID":0,"区域站级别":"骨干站","OBTID":"P3643","OBTName":"桃矿","CityName":"岳阳市","CountyName":"临湘市","Height":121.0,"TownShipName":"桃矿街道","Lon":113.480278,"Lat":29.367778,"remark":""},"geometry":{"type":"Point","coordinates":[113.480278,29.367778]}},{"type":"Feature","properties":{"UserID":0,"区域站级别":"骨干站","OBTID":"P3111","OBTName":"长寿","CityName":"岳阳市","CountyName":"平江县","Height":130.0,"TownShipName":"长寿镇","Lon":113.943889,"Lat":28.701944,"remark":""},"geometry":{"type":"Point","coordinates":[113.943889,28.701944]}},{"type":"Feature","properties":{"UserID":0,"区域站级别":"骨干站","OBTID":"P3532","OBTName":"东山水库","CityName":"岳阳市","CountyName":"华容县","Height":67.0,"TownShipName":"东山镇","Lon":112.735278,"Lat":29.635278,"remark":""},"geometry":{"type":"Point","coordinates":[112.735278,29.635278]}},{"type":"Feature","properties":{"UserID":0,"区域站级别":"骨干站","OBTID":"P1732","OBTName":"金岩","CityName":"张家界市","CountyName":"慈利县","Height":232.0,"TownShipName":"金岩土家族乡","Lon":110.679444,"Lat":29.174722,"remark":""},"geometry":{"type":"Point","coordinates":[110.679444,29.174722]}},{"type":"Feature","properties":{"UserID":0,"区域站级别":"骨干站","OBTID":"P1504","OBTName":"白石","CityName":"张家界市","CountyName":"桑植县","Height":1039.0,"TownShipName":"人潮溪镇","Lon":110.577222,"Lat":29.712222,"remark":""},"geometry":{"type":"Point","coordinates":[110.577222,29.712222]}},{"type":"Feature","properties":{"UserID":0,"区域站级别":"骨干站","OBTID":"P1505","OBTName":"八大公山","CityName":"张家界市","CountyName":"桑植县","Height":1065.0,"TownShipName":"八大公山镇","Lon":109.818889,"Lat":29.665556,"remark":""},"geometry":{"type":"Point","coordinates":[109.818889,29.665556]}},{"type":"Feature","properties":{"UserID":0,"区域站级别":"骨干站","OBTID":"P1733","OBTName":"赵家垭水库","CityName":"张家界市","CountyName":"慈利县","Height":605.1,"TownShipName":"零溪镇","Lon":110.935556,"Lat":29.281667,"remark":""},"geometry":{"type":"Point","coordinates":[110.935556,29.281667]}},{"type":"Feature","properties":{"UserID":0,"区域站级别":"骨干站","OBTID":"P1731","OBTName":"高峰","CityName":"张家界市","CountyName":"慈利县","Height":593.0,"TownShipName":"高峰土家族乡","Lon":110.928333,"Lat":29.445278,"remark":""},"geometry":{"type":"Point","coordinates":[110.928333,29.445278]}},{"type":"Feature","properties":{"UserID":0,"区域站级别":"骨干站","OBTID":"P1528","OBTName":"空壳树","CityName":"张家界市","CountyName":"桑植县","Height":345.0,"TownShipName":"空壳树乡","Lon":110.301944,"Lat":29.428611,"remark":""},"geometry":{"type":"Point","coordinates":[110.301944,29.428611]}},{"type":"Feature","properties":{"UserID":0,"区域站级别":"骨干站","OBTID":"P1506","OBTName":"官地坪","CityName":"张家界市","CountyName":"桑植县","Height":610.0,"TownShipName":"官地坪镇","Lon":110.444722,"Lat":29.603611,"remark":""},"geometry":{"type":"Point","coordinates":[110.444722,29.603611]}},{"type":"Feature","properties":{"UserID":0,"区域站级别":"骨干站","OBTID":"P1515","OBTName":"河口","CityName":"张家界市","CountyName":"桑植县","Height":376.0,"TownShipName":"河口乡","Lon":109.864444,"Lat":29.546667,"remark":""},"geometry":{"type":"Point","coordinates":[109.864444,29.546667]}},{"type":"Feature","properties":{"UserID":0,"区域站级别":"骨干站","OBTID":"P1709","OBTName":"三官寺","CityName":"张家界市","CountyName":"慈利县","Height":227.9,"TownShipName":"三官寺土家族乡","Lon":110.651389,"Lat":29.428333,"remark":""},"geometry":{"type":"Point","coordinates":[110.651389,29.428333]}},{"type":"Feature","properties":{"UserID":0,"区域站级别":"骨干站","OBTID":"P1734","OBTName":"国太桥","CityName":"张家界市","CountyName":"慈利县","Height":211.0,"TownShipName":"三合镇","Lon":110.986667,"Lat":29.648333,"remark":""},"geometry":{"type":"Point","coordinates":[110.986667,29.648333]}},{"type":"Feature","properties":{"UserID":0,"区域站级别":"骨干站","OBTID":"P1812","OBTName":"后坪","CityName":"张家界市","CountyName":"永定区","Height":185.0,"TownShipName":"后坪街道","Lon":110.402222,"Lat":29.101111,"remark":""},"geometry":{"type":"Point","coordinates":[110.402222,29.101111]}},{"type":"Feature","properties":{"UserID":0,"区域站级别":"骨干站","OBTID":"P1803","OBTName":"沅古坪","CityName":"张家界市","CountyName":"永定区","Height":395.0,"TownShipName":"沅古坪镇","Lon":110.719167,"Lat":29.013611,"remark":""},"geometry":{"type":"Point","coordinates":[110.719167,29.013611]}},{"type":"Feature","properties":{"UserID":0,"区域站级别":"骨干站","OBTID":"P3620","OBTName":"铁山水库","CityName":"岳阳市","CountyName":"岳阳县","Height":90.0,"TownShipName":"毛田镇","Lon":113.523611,"Lat":29.189722,"remark":""},"geometry":{"type":"Point","coordinates":[113.523611,29.189722]}},{"type":"Feature","properties":{"UserID":0,"区域站级别":"骨干站","OBTID":"P3541","OBTName":"步仙","CityName":"岳阳市","CountyName":"岳阳县","Height":122.7,"TownShipName":"步仙镇","Lon":113.441111,"Lat":29.013333,"remark":""},"geometry":{"type":"Point","coordinates":[113.441111,29.013333]}},{"type":"Feature","properties":{"UserID":0,"区域站级别":"骨干站","OBTID":"P3615","OBTName":"东风水库","CityName":"岳阳市","CountyName":"岳阳县","Height":95.4,"TownShipName":"荣家湾镇","Lon":113.138611,"Lat":29.235,"remark":""},"geometry":{"type":"Point","coordinates":[113.138611,29.235]}},{"type":"Feature","properties":{"UserID":0,"区域站级别":"骨干站","OBTID":"P3547","OBTName":"中洲","CityName":"岳阳市","CountyName":"岳阳县","Height":32.5,"TownShipName":"中洲乡","Lon":113.016111,"Lat":29.133889,"remark":""},"geometry":{"type":"Point","coordinates":[113.016111,29.133889]}},{"type":"Feature","properties":{"UserID":0,"区域站级别":"骨干站","OBTID":"P8082","OBTName":"凡龙圩","CityName":"永州市","CountyName":"东安县","Height":209.0,"TownShipName":"井头圩镇","Lon":111.484444,"Lat":26.387778,"remark":""},"geometry":{"type":"Point","coordinates":[111.484444,26.387778]}},{"type":"Feature","properties":{"UserID":0,"区域站级别":"骨干站","OBTID":"P7518","OBTName":"南桥","CityName":"永州市","CountyName":"东安县","Height":313.0,"TownShipName":"南桥镇","Lon":111.465833,"Lat":26.836667,"remark":""},"geometry":{"type":"Point","coordinates":[111.465833,26.836667]}},{"type":"Feature","properties":{"UserID":0,"区域站级别":"骨干站","OBTID":"P7517","OBTName":"横塘","CityName":"永州市","CountyName":"东安县","Height":130.5,"TownShipName":"横塘镇","Lon":111.357778,"Lat":26.221389,"remark":""},"geometry":{"type":"Point","coordinates":[111.357778,26.221389]}},{"type":"Feature","properties":{"UserID":0,"区域站级别":"骨干站","OBTID":"P8057","OBTName":"码市","CityName":"永州市","CountyName":"江华县","Height":341.0,"TownShipName":"码市镇","Lon":112.0325,"Lat":24.921944,"remark":""},"geometry":{"type":"Point","coordinates":[112.0325,24.921944]}},{"type":"Feature","properties":{"UserID":0,"区域站级别":"骨干站","OBTID":"P8064","OBTName":"香草口","CityName":"永州市","CountyName":"江华县","Height":562.4,"TownShipName":"湘江乡","Lon":111.901111,"Lat":25.145556,"remark":""},"geometry":{"type":"Point","coordinates":[111.901111,25.145556]}},{"type":"Feature","properties":{"UserID":0,"区域站级别":"骨干站","OBTID":"P8054","OBTName":"白芒营","CityName":"永州市","CountyName":"江华县","Height":276.0,"TownShipName":"白芒营镇","Lon":111.539167,"Lat":24.928611,"remark":""},"geometry":{"type":"Point","coordinates":[111.539167,24.928611]}},{"type":"Feature","properties":{"UserID":0,"区域站级别":"骨干站","OBTID":"P7898","OBTName":"洪塘营","CityName":"永州市","CountyName":"道县","Height":622.0,"TownShipName":"洪塘营瑶族乡","Lon":111.808333,"Lat":25.293611,"remark":""},"geometry":{"type":"Point","coordinates":[111.808333,25.293611]}},{"type":"Feature","properties":{"UserID":0,"区域站级别":"骨干站","OBTID":"P7881","OBTName":"上坝水库","CityName":"永州市","CountyName":"道县","Height":339.0,"TownShipName":"桥头镇","Lon":111.454722,"Lat":25.7675,"remark":""},"geometry":{"type":"Point","coordinates":[111.454722,25.7675]}},{"type":"Feature","properties":{"UserID":0,"区域站级别":"骨干站","OBTID":"P7886","OBTName":"月岩","CityName":"永州市","CountyName":"道县","Height":356.0,"TownShipName":"清塘镇","Lon":111.390556,"Lat":25.493333,"remark":""},"geometry":{"type":"Point","coordinates":[111.390556,25.493333]}},{"type":"Feature","properties":{"UserID":0,"区域站级别":"骨干站","OBTID":"P8088","OBTName":"仙子脚敬老院","CityName":"永州市","CountyName":"道县","Height":270.0,"TownShipName":"仙子脚镇","Lon":111.373333,"Lat":25.646667,"remark":""},"geometry":{"type":"Point","coordinates":[111.373333,25.646667]}},{"type":"Feature","properties":{"UserID":0,"区域站级别":"骨干站","OBTID":"P7503","OBTName":"新圩江","CityName":"永州市","CountyName":"东安县","Height":192.4,"TownShipName":"新圩江镇","Lon":111.411944,"Lat":26.679722,"remark":""},"geometry":{"type":"Point","coordinates":[111.411944,26.679722]}},{"type":"Feature","properties":{"UserID":0,"区域站级别":"骨干站","OBTID":"P7513","OBTName":"杨江河坝","CityName":"永州市","CountyName":"东安县","Height":269.0,"TownShipName":"大庙口镇","Lon":111.090278,"Lat":26.385,"remark":""},"geometry":{"type":"Point","coordinates":[111.090278,26.385]}},{"type":"Feature","properties":{"UserID":0,"区域站级别":"骨干站","OBTID":"P2773","OBTName":"鱼形山水库","CityName":"益阳市","CountyName":"赫山区","Height":73.0,"TownShipName":"沧水铺镇","Lon":112.435,"Lat":28.410556,"remark":""},"geometry":{"type":"Point","coordinates":[112.435,28.410556]}},{"type":"Feature","properties":{"UserID":0,"区域站级别":"骨干站","OBTID":"P2781","OBTName":"新和电排","CityName":"益阳市","CountyName":"赫山区","Height":39.7,"TownShipName":"泉交河镇","Lon":112.564444,"Lat":28.4825,"remark":""},"geometry":{"type":"Point","coordinates":[112.564444,28.4825]}},{"type":"Feature","properties":{"UserID":0,"区域站级别":"骨干站","OBTID":"P2609","OBTName":"茅草街镇同庆村","CityName":"益阳市","CountyName":"南县","Height":30.8,"TownShipName":"茅草街镇","Lon":112.348333,"Lat":29.097778,"remark":""},"geometry":{"type":"Point","coordinates":[112.348333,29.097778]}},{"type":"Feature","properties":{"UserID":0,"区域站级别":"骨干站","OBTID":"P2617","OBTName":"明山头镇水利站","CityName":"益阳市","CountyName":"南县","Height":37.5,"TownShipName":"明山头镇","Lon":112.590833,"Lat":29.282222,"remark":""},"geometry":{"type":"Point","coordinates":[112.590833,29.282222]}},{"type":"Feature","properties":{"UserID":0,"区域站级别":"骨干站","OBTID":"P2904","OBTName":"柘溪","CityName":"益阳市","CountyName":"安化县","Height":219.0,"TownShipName":"柘溪镇","Lon":111.019722,"Lat":28.380278,"remark":""},"geometry":{"type":"Point","coordinates":[111.019722,28.380278]}},{"type":"Feature","properties":{"UserID":0,"区域站级别":"骨干站","OBTID":"P2931","OBTName":"羊角塘","CityName":"益阳市","CountyName":"安化县","Height":111.0,"TownShipName":"羊角塘镇","Lon":111.615556,"Lat":28.533333,"remark":""},"geometry":{"type":"Point","coordinates":[111.615556,28.533333]}},{"type":"Feature","properties":{"UserID":0,"区域站级别":"骨干站","OBTID":"P2930","OBTName":"高明","CityName":"益阳市","CountyName":"安化县","Height":436.0,"TownShipName":"高明乡","Lon":111.869722,"Lat":28.063333,"remark":""},"geometry":{"type":"Point","coordinates":[111.869722,28.063333]}},{"type":"Feature","properties":{"UserID":0,"区域站级别":"骨干站","OBTID":"P2936","OBTName":"江南麻溪","CityName":"益阳市","CountyName":"安化县","Height":87.0,"TownShipName":"江南镇","Lon":111.425278,"Lat":28.373889,"remark":""},"geometry":{"type":"Point","coordinates":[111.425278,28.373889]}},{"type":"Feature","properties":{"UserID":0,"区域站级别":"骨干站","OBTID":"P2915","OBTName":"平口水厂","CityName":"益阳市","CountyName":"安化县","Height":206.0,"TownShipName":"平口镇","Lon":111.086667,"Lat":28.037778,"remark":""},"geometry":{"type":"Point","coordinates":[111.086667,28.037778]}},{"type":"Feature","properties":{"UserID":0,"区域站级别":"骨干站","OBTID":"P2921","OBTName":"奎溪","CityName":"益阳市","CountyName":"安化县","Height":280.0,"TownShipName":"奎溪镇","Lon":110.834444,"Lat":28.244167,"remark":""},"geometry":{"type":"Point","coordinates":[110.834444,28.244167]}},{"type":"Feature","properties":{"UserID":0,"区域站级别":"骨干站","OBTID":"P2927","OBTName":"梅城","CityName":"益阳市","CountyName":"安化县","Height":205.5,"TownShipName":"梅城镇","Lon":111.655556,"Lat":28.156389,"remark":""},"geometry":{"type":"Point","coordinates":[111.655556,28.156389]}},{"type":"Feature","properties":{"UserID":0,"区域站级别":"骨干站","OBTID":"P2680","OBTName":"漉湖芦苇场水管站","CityName":"益阳市","CountyName":"沅江市","Height":30.0,"TownShipName":"漉湖芦苇场","Lon":112.840556,"Lat":28.988333,"remark":""},"geometry":{"type":"Point","coordinates":[112.840556,28.988333]}},{"type":"Feature","properties":{"UserID":0,"区域站级别":"骨干站","OBTID":"P2677","OBTName":"南大膳镇石r村","CityName":"益阳市","CountyName":"沅江市","Height":31.5,"TownShipName":"南大膳镇","Lon":112.690278,"Lat":29.086944,"remark":""},"geometry":{"type":"Point","coordinates":[112.690278,29.086944]}},{"type":"Feature","properties":{"UserID":0,"区域站级别":"骨干站","OBTID":"P2851","OBTName":"鸬鹚渡","CityName":"益阳市","CountyName":"桃江县","Height":74.0,"TownShipName":"鸬鹚渡镇","Lon":111.9475,"Lat":28.476389,"remark":""},"geometry":{"type":"Point","coordinates":[111.9475,28.476389]}},{"type":"Feature","properties":{"UserID":0,"区域站级别":"骨干站","OBTID":"P2845","OBTName":"沂溪河电站","CityName":"益阳市","CountyName":"桃江县","Height":78.0,"TownShipName":"马迹塘镇","Lon":111.787222,"Lat":28.457778,"remark":""},"geometry":{"type":"Point","coordinates":[111.787222,28.457778]}},{"type":"Feature","properties":{"UserID":0,"区域站级别":"骨干站","OBTID":"P2855","OBTName":"松木塘","CityName":"益阳市","CountyName":"桃江县","Height":141.0,"TownShipName":"松木塘镇","Lon":112.056944,"Lat":28.318889,"remark":""},"geometry":{"type":"Point","coordinates":[112.056944,28.318889]}},{"type":"Feature","properties":{"UserID":0,"区域站级别":"骨干站","OBTID":"P7723","OBTName":"阳明山","CityName":"永州市","CountyName":"双牌县","Height":1524.0,"TownShipName":"阳明山管理局","Lon":111.909167,"Lat":26.116111,"remark":""},"geometry":{"type":"Point","coordinates":[111.909167,26.116111]}},{"type":"Feature","properties":{"UserID":0,"区域站级别":"骨干站","OBTID":"P8077","OBTName":"大忠桥政府","CityName":"永州市","CountyName":"祁阳市","Height":126.0,"TownShipName":"大忠桥镇","Lon":111.872778,"Lat":26.37,"remark":""},"geometry":{"type":"Point","coordinates":[111.872778,26.37]}},{"type":"Feature","properties":{"UserID":0,"区域站级别":"骨干站","OBTID":"P8078","OBTName":"十里坪农场","CityName":"永州市","CountyName":"祁阳市","Height":130.0,"TownShipName":"黎家坪镇","Lon":111.758056,"Lat":26.716944,"remark":""},"geometry":{"type":"Point","coordinates":[111.758056,26.716944]}},{"type":"Feature","properties":{"UserID":0,"区域站级别":"骨干站","OBTID":"P7837","OBTName":"新圩","CityName":"永州市","CountyName":"新田县","Height":178.0,"TownShipName":"新圩镇","Lon":112.276667,"Lat":25.806667,"remark":""},"geometry":{"type":"Point","coordinates":[112.276667,25.806667]}},{"type":"Feature","properties":{"UserID":0,"区域站级别":"骨干站","OBTID":"P7734","OBTName":"理家坪","CityName":"永州市","CountyName":"双牌县","Height":209.0,"TownShipName":"理家坪乡","Lon":111.660833,"Lat":25.657778,"remark":""},"geometry":{"type":"Point","coordinates":[111.660833,25.657778]}},{"type":"Feature","properties":{"UserID":0,"区域站级别":"骨干站","OBTID":"P8076","OBTName":"进宝塘","CityName":"永州市","CountyName":"祁阳市","Height":99.0,"TownShipName":"进宝塘镇","Lon":112.070833,"Lat":26.426944,"remark":""},"geometry":{"type":"Point","coordinates":[112.070833,26.426944]}},{"type":"Feature","properties":{"UserID":0,"区域站级别":"骨干站","OBTID":"P7963","OBTName":"甘溪","CityName":"永州市","CountyName":"蓝山县","Height":288.0,"TownShipName":"楠市镇","Lon":112.224167,"Lat":25.589722,"remark":""},"geometry":{"type":"Point","coordinates":[112.224167,25.589722]}},{"type":"Feature","properties":{"UserID":0,"区域站级别":"骨干站","OBTID":"P7575","OBTName":"普利桥","CityName":"永州市","CountyName":"冷水滩区","Height":158.0,"TownShipName":"普利桥镇","Lon":111.57,"Lat":26.667778,"remark":""},"geometry":{"type":"Point","coordinates":[111.57,26.667778]}},{"type":"Feature","properties":{"UserID":0,"区域站级别":"骨干站","OBTID":"P8005","OBTName":"源口","CityName":"永州市","CountyName":"江永县","Height":327.0,"TownShipName":"源口瑶族乡","Lon":111.075,"Lat":24.996667,"remark":""},"geometry":{"type":"Point","coordinates":[111.075,24.996667]}},{"type":"Feature","properties":{"UserID":0,"区域站级别":"骨干站","OBTID":"P8103","OBTName":"河路口政府","CityName":"永州市","CountyName":"江华县","Height":336.0,"TownShipName":"河路口镇","Lon":111.488889,"Lat":24.737778,"remark":""},"geometry":{"type":"Point","coordinates":[111.488889,24.737778]}},{"type":"Feature","properties":{"UserID":0,"区域站级别":"骨干站","OBTID":"P8099","OBTName":"大圩","CityName":"永州市","CountyName":"江华县","Height":363.0,"TownShipName":"大圩镇","Lon":111.708333,"Lat":24.870833,"remark":""},"geometry":{"type":"Point","coordinates":[111.708333,24.870833]}},{"type":"Feature","properties":{"UserID":0,"区域站级别":"骨干站","OBTID":"P7947","OBTName":"竹林","CityName":"永州市","CountyName":"蓝山县","Height":1159.0,"TownShipName":"湘江源瑶族乡","Lon":112.045278,"Lat":25.1875,"remark":""},"geometry":{"type":"Point","coordinates":[112.045278,25.1875]}},{"type":"Feature","properties":{"UserID":0,"区域站级别":"骨干站","OBTID":"P7992","OBTName":"上江圩","CityName":"永州市","CountyName":"江永县","Height":208.7,"TownShipName":"上江圩镇","Lon":111.44,"Lat":25.349722,"remark":""},"geometry":{"type":"Point","coordinates":[111.44,25.349722]}},{"type":"Feature","properties":{"UserID":0,"区域站级别":"骨干站","OBTID":"P7612","OBTName":"保定安","CityName":"永州市","CountyName":"祁阳市","Height":118.0,"TownShipName":"羊角塘镇","Lon":112.069444,"Lat":26.624722,"remark":""},"geometry":{"type":"Point","coordinates":[112.069444,26.624722]}},{"type":"Feature","properties":{"UserID":0,"区域站级别":"骨干站","OBTID":"P8091","OBTName":"湾井","CityName":"永州市","CountyName":"宁远县","Height":254.0,"TownShipName":"湾井镇","Lon":112.012222,"Lat":25.475833,"remark":""},"geometry":{"type":"Point","coordinates":[112.012222,25.475833]}},{"type":"Feature","properties":{"UserID":0,"区域站级别":"骨干站","OBTID":"P8092","OBTName":"幕投","CityName":"永州市","CountyName":"宁远县","Height":235.0,"TownShipName":"中和镇","Lon":111.823611,"Lat":25.670833,"remark":""},"geometry":{"type":"Point","coordinates":[111.823611,25.670833]}},{"type":"Feature","properties":{"UserID":0,"区域站级别":"骨干站","OBTID":"P7627","OBTName":"金洞林场","CityName":"永州市","CountyName":"金洞管理区","Height":278.4,"TownShipName":"金洞镇","Lon":112.084444,"Lat":26.288889,"remark":""},"geometry":{"type":"Point","coordinates":[112.084444,26.288889]}},{"type":"Feature","properties":{"UserID":0,"区域站级别":"骨干站","OBTID":"P7785","OBTName":"太平","CityName":"永州市","CountyName":"宁远县","Height":355.0,"TownShipName":"太平镇","Lon":112.123056,"Lat":25.663056,"remark":""},"geometry":{"type":"Point","coordinates":[112.123056,25.663056]}},{"type":"Feature","properties":{"UserID":0,"区域站级别":"骨干站","OBTID":"P8073","OBTName":"公龙岭","CityName":"永州市","CountyName":"零陵区","Height":220.0,"TownShipName":"邮亭圩镇","Lon":111.8,"Lat":26.228333,"remark":""},"geometry":{"type":"Point","coordinates":[111.8,26.228333]}},{"type":"Feature","properties":{"UserID":0,"区域站级别":"骨干站","OBTID":"P7779","OBTName":"柏家坪","CityName":"永州市","CountyName":"宁远县","Height":258.0,"TownShipName":"柏家坪镇","Lon":111.989167,"Lat":25.833889,"remark":""},"geometry":{"type":"Point","coordinates":[111.989167,25.833889]}},{"type":"Feature","properties":{"UserID":0,"区域站级别":"骨干站","OBTID":"P2139","OBTName":"赤港湾水库","CityName":"常德市","CountyName":"汉寿县","Height":73.0,"TownShipName":"龙潭桥镇","Lon":112.184167,"Lat":28.740833,"remark":""},"geometry":{"type":"Point","coordinates":[112.184167,28.740833]}},{"type":"Feature","properties":{"UserID":0,"区域站级别":"骨干站","OBTID":"P2074","OBTName":"江东市水库","CityName":"常德市","CountyName":"汉寿县","Height":86.0,"TownShipName":"朱家铺镇","Lon":111.773056,"Lat":28.722778,"remark":""},"geometry":{"type":"Point","coordinates":[111.773056,28.722778]}},{"type":"Feature","properties":{"UserID":0,"区域站级别":"骨干站","OBTID":"P2076","OBTName":"花岩溪","CityName":"常德市","CountyName":"鼎城区","Height":120.0,"TownShipName":"花岩溪镇","Lon":111.546389,"Lat":28.706944,"remark":""},"geometry":{"type":"Point","coordinates":[111.546389,28.706944]}},{"type":"Feature","properties":{"UserID":0,"区域站级别":"骨干站","OBTID":"P1993","OBTName":"下渔口","CityName":"常德市","CountyName":"安乡县","Height":31.0,"TownShipName":"下渔口镇","Lon":112.1525,"Lat":29.278611,"remark":""},"geometry":{"type":"Point","coordinates":[112.1525,29.278611]}},{"type":"Feature","properties":{"UserID":0,"区域站级别":"骨干站","OBTID":"P2127","OBTName":"甘溪滩镇芦茅","CityName":"常德市","CountyName":"澧县","Height":228.0,"TownShipName":"甘溪滩镇","Lon":111.392778,"Lat":29.851944,"remark":""},"geometry":{"type":"Point","coordinates":[111.392778,29.851944]}},{"type":"Feature","properties":{"UserID":0,"区域站级别":"骨干站","OBTID":"P2044","OBTName":"石门桥镇伍家嘴","CityName":"常德市","CountyName":"德山经济开发区","Height":50.0,"TownShipName":"石门桥镇","Lon":111.754444,"Lat":28.961111,"remark":""},"geometry":{"type":"Point","coordinates":[111.754444,28.961111]}},{"type":"Feature","properties":{"UserID":0,"区域站级别":"骨干站","OBTID":"P2140","OBTName":"斋家冲水库","CityName":"常德市","CountyName":"汉寿县","Height":60.0,"TownShipName":"崔家桥镇","Lon":111.991944,"Lat":28.668056,"remark":""},"geometry":{"type":"Point","coordinates":[111.991944,28.668056]}},{"type":"Feature","properties":{"UserID":0,"区域站级别":"骨干站","OBTID":"P2092","OBTName":"洲口","CityName":"常德市","CountyName":"汉寿县","Height":32.0,"TownShipName":"洲口镇","Lon":112.026389,"Lat":29.015,"remark":""},"geometry":{"type":"Point","coordinates":[112.026389,29.015]}},{"type":"Feature","properties":{"UserID":0,"区域站级别":"骨干站","OBTID":"P2203","OBTName":"庹家峪水库","CityName":"常德市","CountyName":"津市","Height":50.0,"TownShipName":"新洲镇","Lon":111.799167,"Lat":29.513056,"remark":""},"geometry":{"type":"Point","coordinates":[111.799167,29.513056]}},{"type":"Feature","properties":{"UserID":0,"区域站级别":"骨干站","OBTID":"P4121","OBTName":"祖市殿站","CityName":"怀化市","CountyName":"溆浦县","Height":230.0,"TownShipName":"祖师殿镇","Lon":110.764722,"Lat":28.039444,"remark":""},"geometry":{"type":"Point","coordinates":[110.764722,28.039444]}},{"type":"Feature","properties":{"UserID":0,"区域站级别":"骨干站","OBTID":"P3870","OBTName":"中寨站","CityName":"怀化市","CountyName":"新晃县","Height":473.0,"TownShipName":"中寨镇","Lon":109.286667,"Lat":27.231667,"remark":""},"geometry":{"type":"Point","coordinates":[109.286667,27.231667]}},{"type":"Feature","properties":{"UserID":0,"区域站级别":"骨干站","OBTID":"P7336","OBTName":"曲兰镇月形","CityName":"衡阳市","CountyName":"衡阳县","Height":170.0,"TownShipName":"曲兰镇","Lon":112.178611,"Lat":27.273056,"remark":""},"geometry":{"type":"Point","coordinates":[112.178611,27.273056]}},{"type":"Feature","properties":{"UserID":0,"区域站级别":"骨干站","OBTID":"P7323","OBTName":"牛形山水库","CityName":"衡阳市","CountyName":"衡阳县","Height":119.0,"TownShipName":"岘山镇","Lon":112.223611,"Lat":26.924167,"remark":""},"geometry":{"type":"Point","coordinates":[112.223611,26.924167]}},{"type":"Feature","properties":{"UserID":0,"区域站级别":"骨干站","OBTID":"P1953","OBTName":"大湖口镇水管站","CityName":"常德市","CountyName":"安乡县","Height":30.0,"TownShipName":"大湖口镇","Lon":112.105,"Lat":29.576389,"remark":""},"geometry":{"type":"Point","coordinates":[112.105,29.576389]}},{"type":"Feature","properties":{"UserID":0,"区域站级别":"骨干站","OBTID":"P7320","OBTName":"山峙门水库","CityName":"衡阳市","CountyName":"衡阳县","Height":150.0,"TownShipName":"岣嵝乡","Lon":112.591389,"Lat":27.123056,"remark":""},"geometry":{"type":"Point","coordinates":[112.591389,27.123056]}},{"type":"Feature","properties":{"UserID":0,"区域站级别":"骨干站","OBTID":"P2091","OBTName":"祝丰镇南湖","CityName":"常德市","CountyName":"西洞庭管理区","Height":30.0,"TownShipName":"祝丰镇","Lon":111.975556,"Lat":29.208611,"remark":""},"geometry":{"type":"Point","coordinates":[111.975556,29.208611]}},{"type":"Feature","properties":{"UserID":0,"区域站级别":"骨干站","OBTID":"P2137","OBTName":"凌津滩","CityName":"常德市","CountyName":"桃源县","Height":66.0,"TownShipName":"夷望溪镇","Lon":111.216667,"Lat":28.75,"remark":""},"geometry":{"type":"Point","coordinates":[111.216667,28.75]}},{"type":"Feature","properties":{"UserID":0,"区域站级别":"骨干站","OBTID":"P2135","OBTName":"木塘垸","CityName":"常德市","CountyName":"桃源县","Height":36.0,"TownShipName":"木塘垸镇","Lon":111.569167,"Lat":29.019722,"remark":""},"geometry":{"type":"Point","coordinates":[111.569167,29.019722]}},{"type":"Feature","properties":{"UserID":0,"区域站级别":"骨干站","OBTID":"P2093","OBTName":"剪市","CityName":"常德市","CountyName":"桃源县","Height":58.0,"TownShipName":"剪市镇","Lon":111.33,"Lat":28.752222,"remark":""},"geometry":{"type":"Point","coordinates":[111.33,28.752222]}},{"type":"Feature","properties":{"UserID":0,"区域站级别":"骨干站","OBTID":"P7318","OBTName":"斜陂堰水库","CityName":"衡阳市","CountyName":"衡阳县","Height":116.0,"TownShipName":"石市镇","Lon":112.492778,"Lat":27.205,"remark":""},"geometry":{"type":"Point","coordinates":[112.492778,27.205]}},{"type":"Feature","properties":{"UserID":0,"区域站级别":"骨干站","OBTID":"57765","OBTName":"雪峰山","CityName":"怀化市","CountyName":"洪江市","Height":1404.9,"TownShipName":"雪峰山国家森林公园","Lon":110.407222,"Lat":27.323889,"remark":""},"geometry":{"type":"Point","coordinates":[110.407222,27.323889]}},{"type":"Feature","properties":{"UserID":0,"区域站级别":"骨干站","OBTID":"P1981","OBTName":"佘市桥镇文家店","CityName":"常德市","CountyName":"临澧县","Height":83.0,"TownShipName":"佘市桥镇","Lon":111.544444,"Lat":29.376944,"remark":""},"geometry":{"type":"Point","coordinates":[111.544444,29.376944]}},{"type":"Feature","properties":{"UserID":0,"区域站级别":"骨干站","OBTID":"P1910","OBTName":"东山峰","CityName":"常德市","CountyName":"石门县","Height":1469.3,"TownShipName":"东山峰管理区","Lon":110.675556,"Lat":29.925833,"remark":""},"geometry":{"type":"Point","coordinates":[110.675556,29.925833]}},{"type":"Feature","properties":{"UserID":0,"区域站级别":"骨干站","OBTID":"P2122","OBTName":"大同山林场","CityName":"常德市","CountyName":"石门县","Height":499.0,"TownShipName":"大同山林场","Lon":111.110833,"Lat":29.819444,"remark":""},"geometry":{"type":"Point","coordinates":[111.110833,29.819444]}},{"type":"Feature","properties":{"UserID":0,"区域站级别":"骨干站","OBTID":"P1940","OBTName":"白云桥","CityName":"常德市","CountyName":"石门县","Height":717.0,"TownShipName":"白云山林场","Lon":111.15,"Lat":29.678333,"remark":""},"geometry":{"type":"Point","coordinates":[111.15,29.678333]}},{"type":"Feature","properties":{"UserID":0,"区域站级别":"骨干站","OBTID":"P2090","OBTName":"盐井","CityName":"常德市","CountyName":"澧县","Height":88.0,"TownShipName":"盐井镇","Lon":111.766389,"Lat":29.844722,"remark":""},"geometry":{"type":"Point","coordinates":[111.766389,29.844722]}},{"type":"Feature","properties":{"UserID":0,"区域站级别":"骨干站","OBTID":"P2128","OBTName":"王家厂水库","CityName":"常德市","CountyName":"澧县","Height":83.0,"TownShipName":"王家厂镇","Lon":111.527222,"Lat":29.766944,"remark":""},"geometry":{"type":"Point","coordinates":[111.527222,29.766944]}},{"type":"Feature","properties":{"UserID":0,"区域站级别":"骨干站","OBTID":"P2002","OBTName":"黄石水库","CityName":"常德市","CountyName":"桃源县","Height":107.0,"TownShipName":"黄石镇","Lon":111.193889,"Lat":29.191389,"remark":""},"geometry":{"type":"Point","coordinates":[111.193889,29.191389]}},{"type":"Feature","properties":{"UserID":0,"区域站级别":"骨干站","OBTID":"P2047","OBTName":"观音寺","CityName":"常德市","CountyName":"桃源县","Height":97.0,"TownShipName":"观音寺镇","Lon":111.082222,"Lat":28.926667,"remark":""},"geometry":{"type":"Point","coordinates":[111.082222,28.926667]}},{"type":"Feature","properties":{"UserID":0,"区域站级别":"骨干站","OBTID":"P2025","OBTName":"牛车河","CityName":"常德市","CountyName":"桃源县","Height":167.0,"TownShipName":"牛车河镇","Lon":110.977778,"Lat":29.059722,"remark":""},"geometry":{"type":"Point","coordinates":[110.977778,29.059722]}},{"type":"Feature","properties":{"UserID":0,"区域站级别":"骨干站","OBTID":"P2089","OBTName":"里山河水库","CityName":"常德市","CountyName":"石门县","Height":493.0,"TownShipName":"雁池乡","Lon":111.016389,"Lat":29.892778,"remark":""},"geometry":{"type":"Point","coordinates":[111.016389,29.892778]}},{"type":"Feature","properties":{"UserID":0,"区域站级别":"骨干站","OBTID":"P2130","OBTName":"鳌山小学","CityName":"常德市","CountyName":"临澧县","Height":77.0,"TownShipName":"四新岗镇","Lon":111.766111,"Lat":29.307222,"remark":""},"geometry":{"type":"Point","coordinates":[111.766111,29.307222]}},{"type":"Feature","properties":{"UserID":0,"区域站级别":"骨干站","OBTID":"P1920","OBTName":"太平","CityName":"常德市","CountyName":"石门县","Height":281.0,"TownShipName":"太平镇","Lon":111.075833,"Lat":29.974444,"remark":""},"geometry":{"type":"Point","coordinates":[111.075833,29.974444]}},{"type":"Feature","properties":{"UserID":0,"区域站级别":"骨干站","OBTID":"P2107","OBTName":"磨市镇南岳寺","CityName":"常德市","CountyName":"石门县","Height":225.0,"TownShipName":"磨市镇","Lon":110.857778,"Lat":29.746667,"remark":""},"geometry":{"type":"Point","coordinates":[110.857778,29.746667]}},{"type":"Feature","properties":{"UserID":0,"区域站级别":"骨干站","OBTID":"P5600","OBTName":"望城区气象局","CityName":"长沙市","CountyName":"望城区","Height":59.0,"TownShipName":"高塘岭街道","Lon":112.789167,"Lat":28.351111,"remark":""},"geometry":{"type":"Point","coordinates":[112.789167,28.351111]}},{"type":"Feature","properties":{"UserID":0,"区域站级别":"骨干站","OBTID":"P5187","OBTName":"北山新桥社区","CityName":"长沙市","CountyName":"长沙县","Height":53.0,"TownShipName":"北山镇","Lon":113.111111,"Lat":28.49,"remark":""},"geometry":{"type":"Point","coordinates":[113.111111,28.49]}},{"type":"Feature","properties":{"UserID":0,"区域站级别":"骨干站","OBTID":"P5206","OBTName":"春华红旗水库","CityName":"长沙市","CountyName":"长沙县","Height":86.0,"TownShipName":"春华镇","Lon":113.307778,"Lat":28.323333,"remark":""},"geometry":{"type":"Point","coordinates":[113.307778,28.323333]}},{"type":"Feature","properties":{"UserID":0,"区域站级别":"骨干站","OBTID":"P5599","OBTName":"长沙城市站","CityName":"长沙市","CountyName":"岳麓区","Height":37.0,"TownShipName":"梅溪湖街道","Lon":112.916389,"Lat":28.200833,"remark":""},"geometry":{"type":"Point","coordinates":[112.916389,28.200833]}},{"type":"Feature","properties":{"UserID":0,"区域站级别":"骨干站","OBTID":"P5108","OBTName":"金井","CityName":"长沙市","CountyName":"长沙县","Height":78.0,"TownShipName":"金井镇","Lon":113.368333,"Lat":28.532222,"remark":""},"geometry":{"type":"Point","coordinates":[113.368333,28.532222]}},{"type":"Feature","properties":{"UserID":0,"区域站级别":"骨干站","OBTID":"P5221","OBTName":"社港镇石牛","CityName":"长沙市","CountyName":"浏阳市","Height":145.0,"TownShipName":"社港镇","Lon":113.595278,"Lat":28.430556,"remark":""},"geometry":{"type":"Point","coordinates":[113.595278,28.430556]}},{"type":"Feature","properties":{"UserID":0,"区域站级别":"骨干站","OBTID":"P5281","OBTName":"霞凝港","CityName":"长沙市","CountyName":"开福区","Height":35.0,"TownShipName":"青竹湖街道","Lon":112.929722,"Lat":28.323056,"remark":""},"geometry":{"type":"Point","coordinates":[112.929722,28.323056]}},{"type":"Feature","properties":{"UserID":0,"区域站级别":"骨干站","OBTID":"P5104","OBTName":"沙市镇中洲","CityName":"长沙市","CountyName":"浏阳市","Height":91.0,"TownShipName":"沙市镇","Lon":113.44,"Lat":28.377222,"remark":""},"geometry":{"type":"Point","coordinates":[113.44,28.377222]}},{"type":"Feature","properties":{"UserID":0,"区域站级别":"骨干站","OBTID":"P5323","OBTName":"永和镇铁山","CityName":"长沙市","CountyName":"浏阳市","Height":137.0,"TownShipName":"永和镇","Lon":113.908333,"Lat":28.280833,"remark":""},"geometry":{"type":"Point","coordinates":[113.908333,28.280833]}},{"type":"Feature","properties":{"UserID":0,"区域站级别":"骨干站","OBTID":"P5398","OBTName":"中和","CityName":"长沙市","CountyName":"浏阳市","Height":189.0,"TownShipName":"中和镇","Lon":113.871667,"Lat":28.085556,"remark":""},"geometry":{"type":"Point","coordinates":[113.871667,28.085556]}},{"type":"Feature","properties":{"UserID":0,"区域站级别":"骨干站","OBTID":"P1858","OBTName":"姚家界","CityName":"张家界市","CountyName":"永定区","Height":851.0,"TownShipName":"天门山镇","Lon":110.457778,"Lat":28.966944,"remark":""},"geometry":{"type":"Point","coordinates":[110.457778,28.966944]}},{"type":"Feature","properties":{"UserID":0,"区域站级别":"骨干站","OBTID":"P5249","OBTName":"大围山","CityName":"长沙市","CountyName":"浏阳市","Height":1378.0,"TownShipName":"大围山镇","Lon":114.116111,"Lat":28.423056,"remark":""},"geometry":{"type":"Point","coordinates":[114.116111,28.423056]}},{"type":"Feature","properties":{"UserID":0,"区域站级别":"骨干站","OBTID":"P5315","OBTName":"北盛","CityName":"长沙市","CountyName":"浏阳市","Height":54.0,"TownShipName":"北盛镇","Lon":113.418889,"Lat":28.249722,"remark":""},"geometry":{"type":"Point","coordinates":[113.418889,28.249722]}},{"type":"Feature","properties":{"UserID":0,"区域站级别":"骨干站","OBTID":"P1610","OBTName":"袁家界","CityName":"张家界市","CountyName":"武陵源区","Height":868.0,"TownShipName":"锣鼓塔街道","Lon":110.453056,"Lat":29.348056,"remark":""},"geometry":{"type":"Point","coordinates":[110.453056,29.348056]}},{"type":"Feature","properties":{"UserID":0,"区域站级别":"骨干站","OBTID":"P1820","OBTName":"安坪","CityName":"张家界市","CountyName":"永定区","Height":446.0,"TownShipName":"茅岩河镇","Lon":110.156944,"Lat":29.279167,"remark":""},"geometry":{"type":"Point","coordinates":[110.156944,29.279167]}},{"type":"Feature","properties":{"UserID":0,"区域站级别":"骨干站","OBTID":"P5508","OBTName":"流沙河","CityName":"长沙市","CountyName":"宁乡市","Height":129.0,"TownShipName":"流沙河镇","Lon":112.121389,"Lat":27.998889,"remark":""},"geometry":{"type":"Point","coordinates":[112.121389,27.998889]}},{"type":"Feature","properties":{"UserID":0,"区域站级别":"骨干站","OBTID":"P5436","OBTName":"黑石铺","CityName":"长沙市","CountyName":"天心区","Height":58.0,"TownShipName":"黑石铺街道","Lon":112.985833,"Lat":28.079444,"remark":""},"geometry":{"type":"Point","coordinates":[112.985833,28.079444]}},{"type":"Feature","properties":{"UserID":0,"区域站级别":"骨干站","OBTID":"P5459","OBTName":"花明楼","CityName":"长沙市","CountyName":"宁乡市","Height":80.0,"TownShipName":"花明楼镇","Lon":112.644722,"Lat":28.045278,"remark":""},"geometry":{"type":"Point","coordinates":[112.644722,28.045278]}},{"type":"Feature","properties":{"UserID":0,"区域站级别":"骨干站","OBTID":"P5488","OBTName":"灰汤镇双盆","CityName":"长沙市","CountyName":"宁乡市","Height":80.0,"TownShipName":"灰汤镇","Lon":112.378333,"Lat":28.0275,"remark":""},"geometry":{"type":"Point","coordinates":[112.378333,28.0275]}},{"type":"Feature","properties":{"UserID":0,"区域站级别":"骨干站","OBTID":"P5467","OBTName":"普迹镇书院","CityName":"长沙市","CountyName":"浏阳市","Height":81.0,"TownShipName":"普迹镇","Lon":113.433056,"Lat":27.995556,"remark":""},"geometry":{"type":"Point","coordinates":[113.433056,27.995556]}},{"type":"Feature","properties":{"UserID":0,"区域站级别":"骨干站","OBTID":"P5373","OBTName":"巷子口镇官山","CityName":"长沙市","CountyName":"宁乡市","Height":197.0,"TownShipName":"巷子口镇","Lon":112.003889,"Lat":28.110833,"remark":""},"geometry":{"type":"Point","coordinates":[112.003889,28.110833]}},{"type":"Feature","properties":{"UserID":0,"区域站级别":"骨干站","OBTID":"P5471","OBTName":"大瑶镇杨花","CityName":"长沙市","CountyName":"浏阳市","Height":145.0,"TownShipName":"大瑶镇","Lon":113.655833,"Lat":27.954167,"remark":""},"geometry":{"type":"Point","coordinates":[113.655833,27.954167]}},{"type":"Feature","properties":{"UserID":0,"区域站级别":"骨干站","OBTID":"P5322","OBTName":"喻家坳","CityName":"长沙市","CountyName":"宁乡市","Height":121.0,"TownShipName":"喻家坳乡","Lon":112.261111,"Lat":28.224722,"remark":""},"geometry":{"type":"Point","coordinates":[112.261111,28.224722]}},{"type":"Feature","properties":{"UserID":0,"区域站级别":"骨干站","OBTID":"P5749","OBTName":"石亭","CityName":"株洲市","CountyName":"醴陵市","Height":83.0,"TownShipName":"石亭镇","Lon":113.241667,"Lat":27.626389,"remark":""},"geometry":{"type":"Point","coordinates":[113.241667,27.626389]}},{"type":"Feature","properties":{"UserID":0,"区域站级别":"骨干站","OBTID":"P5722","OBTName":"官庄水库","CityName":"株洲市","CountyName":"醴陵市","Height":137.0,"TownShipName":"官庄镇","Lon":113.427778,"Lat":27.881389,"remark":""},"geometry":{"type":"Point","coordinates":[113.427778,27.881389]}},{"type":"Feature","properties":{"UserID":0,"区域站级别":"骨干站","OBTID":"P5849","OBTName":"龙门","CityName":"株洲市","CountyName":"渌口区","Height":84.0,"TownShipName":"龙门镇","Lon":113.162222,"Lat":27.436667,"remark":""},"geometry":{"type":"Point","coordinates":[113.162222,27.436667]}},{"type":"Feature","properties":{"UserID":0,"区域站级别":"骨干站","OBTID":"P5778","OBTName":"朱亭","CityName":"株洲市","CountyName":"渌口区","Height":49.0,"TownShipName":"朱亭镇","Lon":113.090556,"Lat":27.273333,"remark":""},"geometry":{"type":"Point","coordinates":[113.090556,27.273333]}},{"type":"Feature","properties":{"UserID":0,"区域站级别":"骨干站","OBTID":"P5759","OBTName":"孙家湾","CityName":"株洲市","CountyName":"醴陵市","Height":104.0,"TownShipName":"孙家湾镇","Lon":113.512222,"Lat":27.549167,"remark":""},"geometry":{"type":"Point","coordinates":[113.512222,27.549167]}},{"type":"Feature","properties":{"UserID":0,"区域站级别":"骨干站","OBTID":"P5700","OBTName":"云田","CityName":"株洲市","CountyName":"云龙示范区","Height":64.0,"TownShipName":"云田镇","Lon":113.185,"Lat":27.978056,"remark":""},"geometry":{"type":"Point","coordinates":[113.185,27.978056]}},{"type":"Feature","properties":{"UserID":0,"区域站级别":"骨干站","OBTID":"P5741","OBTName":"南洲","CityName":"株洲市","CountyName":"渌口区","Height":47.0,"TownShipName":"南洲镇","Lon":113.115278,"Lat":27.598333,"remark":""},"geometry":{"type":"Point","coordinates":[113.115278,27.598333]}},{"type":"Feature","properties":{"UserID":0,"区域站级别":"骨干站","OBTID":"P5747","OBTName":"雷打石","CityName":"株洲市","CountyName":"天元区","Height":47.0,"TownShipName":"雷打石镇","Lon":113.056667,"Lat":27.6775,"remark":""},"geometry":{"type":"Point","coordinates":[113.056667,27.6775]}},{"type":"Feature","properties":{"UserID":0,"区域站级别":"骨干站","OBTID":"P5845","OBTName":"鹿原","CityName":"株洲市","CountyName":"炎陵县","Height":187.0,"TownShipName":"鹿原镇","Lon":113.653333,"Lat":26.477222,"remark":""},"geometry":{"type":"Point","coordinates":[113.653333,26.477222]}},{"type":"Feature","properties":{"UserID":0,"区域站级别":"骨干站","OBTID":"P5854","OBTName":"酒埠江景区","CityName":"株洲市","CountyName":"攸县","Height":219.5,"TownShipName":"酒埠江镇","Lon":113.579444,"Lat":27.214167,"remark":""},"geometry":{"type":"Point","coordinates":[113.579444,27.214167]}},{"type":"Feature","properties":{"UserID":0,"区域站级别":"骨干站","OBTID":"P5842","OBTName":"黄沙桥水库","CityName":"株洲市","CountyName":"攸县","Height":123.0,"TownShipName":"新市镇","Lon":113.322222,"Lat":27.167222,"remark":""},"geometry":{"type":"Point","coordinates":[113.322222,27.167222]}},{"type":"Feature","properties":{"UserID":0,"区域站级别":"骨干站","OBTID":"P5779","OBTName":"丫江桥","CityName":"株洲市","CountyName":"攸县","Height":199.5,"TownShipName":"丫江桥镇","Lon":113.285833,"Lat":27.321944,"remark":""},"geometry":{"type":"Point","coordinates":[113.285833,27.321944]}},{"type":"Feature","properties":{"UserID":0,"区域站级别":"骨干站","OBTID":"P5829","OBTName":"大院农场","CityName":"株洲市","CountyName":"炎陵县","Height":1314.0,"TownShipName":"十都镇","Lon":114.013889,"Lat":26.428333,"remark":""},"geometry":{"type":"Point","coordinates":[114.013889,26.428333]}},{"type":"Feature","properties":{"UserID":0,"区域站级别":"骨干站","OBTID":"P5812","OBTName":"岩口水库","CityName":"株洲市","CountyName":"茶陵县","Height":187.0,"TownShipName":"严塘镇","Lon":113.746667,"Lat":26.777778,"remark":""},"geometry":{"type":"Point","coordinates":[113.746667,26.777778]}},{"type":"Feature","properties":{"UserID":0,"区域站级别":"骨干站","OBTID":"P5783","OBTName":"网岭","CityName":"株洲市","CountyName":"攸县","Height":106.0,"TownShipName":"网岭镇","Lon":113.433333,"Lat":27.231389,"remark":""},"geometry":{"type":"Point","coordinates":[113.433333,27.231389]}},{"type":"Feature","properties":{"UserID":0,"区域站级别":"骨干站","OBTID":"P3846","OBTName":"波州站","CityName":"怀化市","CountyName":"新晃县","Height":444.0,"TownShipName":"波洲镇","Lon":109.245277778,"Lat":27.4038888,"remark":""},"geometry":{"type":"Point","coordinates":[109.245277778,27.4038888]}},{"type":"Feature","properties":{"UserID":0,"区域站级别":"骨干站","OBTID":"P3914","OBTName":"播阳村站","CityName":"怀化市","CountyName":"通道县","Height":359.0,"TownShipName":"播阳镇","Lon":109.519167,"Lat":26.2025,"remark":""},"geometry":{"type":"Point","coordinates":[109.519167,26.2025]}},{"type":"Feature","properties":{"UserID":0,"区域站级别":"骨干站","OBTID":"P3798","OBTName":"北斗溪站","CityName":"怀化市","CountyName":"溆浦县","Height":301.0,"TownShipName":"北斗溪镇","Lon":110.584167,"Lat":27.5775,"remark":""},"geometry":{"type":"Point","coordinates":[110.584167,27.5775]}},{"type":"Feature","properties":{"UserID":0,"区域站级别":"骨干站","OBTID":"P3709","OBTName":"陈家滩站","CityName":"怀化市","CountyName":"沅陵县","Height":165.0,"TownShipName":"陈家滩乡","Lon":110.745278,"Lat":28.693611,"remark":""},"geometry":{"type":"Point","coordinates":[110.745278,28.693611]}},{"type":"Feature","properties":{"UserID":0,"区域站级别":"骨干站","OBTID":"P4143","OBTName":"安江","CityName":"怀化市","CountyName":"洪江市","Height":170.9,"TownShipName":"安江镇","Lon":110.236389,"Lat":27.563889,"remark":""},"geometry":{"type":"Point","coordinates":[110.236389,27.563889]}},{"type":"Feature","properties":{"UserID":0,"区域站级别":"骨干站","OBTID":"P4092","OBTName":"甘棠站","CityName":"怀化市","CountyName":"靖州县","Height":317.0,"TownShipName":"甘棠镇","Lon":109.780833,"Lat":26.721944,"remark":""},"geometry":{"type":"Point","coordinates":[109.780833,26.721944]}},{"type":"Feature","properties":{"UserID":0,"区域站级别":"骨干站","OBTID":"P4155","OBTName":"高椅站","CityName":"怀化市","CountyName":"会同县","Height":214.0,"TownShipName":"高椅乡","Lon":110.018056,"Lat":26.953611,"remark":""},"geometry":{"type":"Point","coordinates":[110.018056,26.953611]}},{"type":"Feature","properties":{"UserID":0,"区域站级别":"骨干站","OBTID":"P4030","OBTName":"高滩站","CityName":"怀化市","CountyName":"沅陵县","Height":320.0,"TownShipName":"明溪口镇","Lon":110.345278,"Lat":28.645278,"remark":""},"geometry":{"type":"Point","coordinates":[110.345278,28.645278]}},{"type":"Feature","properties":{"UserID":0,"区域站级别":"骨干站","OBTID":"P3722","OBTName":"杜家坪站","CityName":"怀化市","CountyName":"沅陵县","Height":398.0,"TownShipName":"杜家坪乡","Lon":110.793889,"Lat":28.425,"remark":""},"geometry":{"type":"Point","coordinates":[110.793889,28.425]}},{"type":"Feature","properties":{"UserID":0,"区域站级别":"骨干站","OBTID":"P3718","OBTName":"官庄站","CityName":"怀化市","CountyName":"沅陵县","Height":336.0,"TownShipName":"官庄镇","Lon":110.910278,"Lat":28.525278,"remark":""},"geometry":{"type":"Point","coordinates":[110.910278,28.525278]}},{"type":"Feature","properties":{"UserID":0,"区域站级别":"骨干站","OBTID":"P3827","OBTName":"大树坳站","CityName":"怀化市","CountyName":"芷江县","Height":401.5,"TownShipName":"大树坳乡","Lon":109.448889,"Lat":27.508611,"remark":""},"geometry":{"type":"Point","coordinates":[109.448889,27.508611]}},{"type":"Feature","properties":{"UserID":0,"区域站级别":"骨干站","OBTID":"P4069","OBTName":"大合坪站","CityName":"怀化市","CountyName":"沅陵县","Height":150.0,"TownShipName":"大合坪乡","Lon":110.626111,"Lat":28.803611,"remark":""},"geometry":{"type":"Point","coordinates":[110.626111,28.803611]}},{"type":"Feature","properties":{"UserID":0,"区域站级别":"骨干站","OBTID":"P3917","OBTName":"独坡村站","CityName":"怀化市","CountyName":"通道县","Height":400.0,"TownShipName":"独坡镇","Lon":109.5475,"Lat":26.078889,"remark":""},"geometry":{"type":"Point","coordinates":[109.5475,26.078889]}},{"type":"Feature","properties":{"UserID":0,"区域站级别":"骨干站","OBTID":"P4021","OBTName":"大渭溪站","CityName":"怀化市","CountyName":"溆浦县","Height":200.0,"TownShipName":"低庄镇","Lon":110.644444,"Lat":28.158333,"remark":""},"geometry":{"type":"Point","coordinates":[110.644444,28.158333]}},{"type":"Feature","properties":{"UserID":0,"区域站级别":"骨干站","OBTID":"P3897","OBTName":"地灵站","CityName":"怀化市","CountyName":"会同县","Height":306.0,"TownShipName":"地灵乡","Lon":109.611389,"Lat":26.723056,"remark":""},"geometry":{"type":"Point","coordinates":[109.611389,26.723056]}},{"type":"Feature","properties":{"UserID":0,"区域站级别":"骨干站","OBTID":"P4068","OBTName":"大溪水库站","CityName":"怀化市","CountyName":"会同县","Height":400.0,"TownShipName":"金竹镇","Lon":109.838889,"Lat":27.008056,"remark":""},"geometry":{"type":"Point","coordinates":[109.838889,27.008056]}},{"type":"Feature","properties":{"UserID":0,"区域站级别":"骨干站","OBTID":"P7208","OBTName":"龙塘","CityName":"衡阳市","CountyName":"耒阳市","Height":222.4,"TownShipName":"龙塘镇","Lon":113.093889,"Lat":26.466667,"remark":""},"geometry":{"type":"Point","coordinates":[113.093889,26.466667]}},{"type":"Feature","properties":{"UserID":0,"区域站级别":"骨干站","OBTID":"P7210","OBTName":"耒水国家湿地公园","CityName":"衡阳市","CountyName":"耒阳市","Height":65.0,"TownShipName":"永济镇","Lon":112.834722,"Lat":26.634167,"remark":""},"geometry":{"type":"Point","coordinates":[112.834722,26.634167]}},{"type":"Feature","properties":{"UserID":0,"区域站级别":"骨干站","OBTID":"P7227","OBTName":"南京","CityName":"衡阳市","CountyName":"耒阳市","Height":83.0,"TownShipName":"南京镇","Lon":112.691389,"Lat":26.365556,"remark":""},"geometry":{"type":"Point","coordinates":[112.691389,26.365556]}},{"type":"Feature","properties":{"UserID":0,"区域站级别":"骨干站","OBTID":"P7228","OBTName":"马水镇小河田","CityName":"衡阳市","CountyName":"耒阳市","Height":115.9,"TownShipName":"马水镇","Lon":113.007222,"Lat":26.672778,"remark":""},"geometry":{"type":"Point","coordinates":[113.007222,26.672778]}},{"type":"Feature","properties":{"UserID":0,"区域站级别":"骨干站","OBTID":"P7327","OBTName":"柿竹水库","CityName":"衡阳市","CountyName":"衡阳县","Height":76.0,"TownShipName":"金溪镇","Lon":112.356667,"Lat":27.238611,"remark":""},"geometry":{"type":"Point","coordinates":[112.356667,27.238611]}},{"type":"Feature","properties":{"UserID":0,"区域站级别":"骨干站","OBTID":"P7330","OBTName":"库宗桥镇华山","CityName":"衡阳市","CountyName":"衡阳县","Height":120.0,"TownShipName":"库宗桥镇","Lon":112.171944,"Lat":27.052222,"remark":""},"geometry":{"type":"Point","coordinates":[112.171944,27.052222]}},{"type":"Feature","properties":{"UserID":0,"区域站级别":"骨干站","OBTID":"P7112","OBTName":"黄土铺","CityName":"衡阳市","CountyName":"祁东县","Height":240.0,"TownShipName":"黄土铺镇","Lon":111.885278,"Lat":26.915833,"remark":""},"geometry":{"type":"Point","coordinates":[111.885278,26.915833]}},{"type":"Feature","properties":{"UserID":0,"区域站级别":"骨干站","OBTID":"P7104","OBTName":"太和堂","CityName":"衡阳市","CountyName":"祁东县","Height":170.0,"TownShipName":"太和堂镇","Lon":111.645278,"Lat":26.891944,"remark":""},"geometry":{"type":"Point","coordinates":[111.645278,26.891944]}},{"type":"Feature","properties":{"UserID":0,"区域站级别":"骨干站","OBTID":"P7119","OBTName":"粮市","CityName":"衡阳市","CountyName":"祁东县","Height":110.0,"TownShipName":"粮市镇","Lon":112.3075,"Lat":26.565833,"remark":""},"geometry":{"type":"Point","coordinates":[112.3075,26.565833]}},{"type":"Feature","properties":{"UserID":0,"区域站级别":"骨干站","OBTID":"P7117","OBTName":"白地市","CityName":"衡阳市","CountyName":"祁东县","Height":239.0,"TownShipName":"白地市镇","Lon":111.938611,"Lat":26.779444,"remark":""},"geometry":{"type":"Point","coordinates":[111.938611,26.779444]}},{"type":"Feature","properties":{"UserID":0,"区域站级别":"骨干站","OBTID":"P4014","OBTName":"清水坪站","CityName":"怀化市","CountyName":"沅陵县","Height":139.0,"TownShipName":"二酉苗族乡","Lon":110.210278,"Lat":28.5275,"remark":""},"geometry":{"type":"Point","coordinates":[110.210278,28.5275]}},{"type":"Feature","properties":{"UserID":0,"区域站级别":"骨干站","OBTID":"P3896","OBTName":"沙溪站","CityName":"怀化市","CountyName":"会同县","Height":316.5,"TownShipName":"沙溪乡","Lon":109.921389,"Lat":26.777222,"remark":""},"geometry":{"type":"Point","coordinates":[109.921389,26.777222]}},{"type":"Feature","properties":{"UserID":0,"区域站级别":"骨干站","OBTID":"P4094","OBTName":"杉木桥村站","CityName":"怀化市","CountyName":"通道县","Height":466.0,"TownShipName":"溪口镇","Lon":109.883333,"Lat":26.433333,"remark":""},"geometry":{"type":"Point","coordinates":[109.883333,26.433333]}},{"type":"Feature","properties":{"UserID":0,"区域站级别":"骨干站","OBTID":"P3823","OBTName":"排牙山林场站","CityName":"怀化市","CountyName":"靖州县","Height":450.0,"TownShipName":"渠阳镇","Lon":109.530833,"Lat":26.505278,"remark":""},"geometry":{"type":"Point","coordinates":[109.530833,26.505278]}},{"type":"Feature","properties":{"UserID":0,"区域站级别":"骨干站","OBTID":"P3849","OBTName":"牌楼站","CityName":"怀化市","CountyName":"中方县","Height":220.0,"TownShipName":"中方镇","Lon":109.913056,"Lat":27.344722,"remark":""},"geometry":{"type":"Point","coordinates":[109.913056,27.344722]}},{"type":"Feature","properties":{"UserID":0,"区域站级别":"骨干站","OBTID":"P4095","OBTName":"木脚村站","CityName":"怀化市","CountyName":"通道县","Height":473.0,"TownShipName":"万佛山镇","Lon":109.933333,"Lat":26.266667,"remark":""},"geometry":{"type":"Point","coordinates":[109.933333,26.266667]}},{"type":"Feature","properties":{"UserID":0,"区域站级别":"骨干站","OBTID":"P3703","OBTName":"七甲坪站","CityName":"怀化市","CountyName":"沅陵县","Height":214.0,"TownShipName":"七甲坪镇","Lon":110.853056,"Lat":28.886389,"remark":""},"geometry":{"type":"Point","coordinates":[110.853056,28.886389]}},{"type":"Feature","properties":{"UserID":0,"区域站级别":"骨干站","OBTID":"P4059","OBTName":"托口","CityName":"怀化市","CountyName":"洪江市","Height":249.0,"TownShipName":"托口镇","Lon":109.613056,"Lat":27.106389,"remark":""},"geometry":{"type":"Point","coordinates":[109.613056,27.106389]}},{"type":"Feature","properties":{"UserID":0,"区域站级别":"骨干站","OBTID":"P4144","OBTName":"熟坪","CityName":"怀化市","CountyName":"洪江市","Height":242.0,"TownShipName":"熟坪乡","Lon":110.163611,"Lat":27.196111,"remark":""},"geometry":{"type":"Point","coordinates":[110.163611,27.196111]}},{"type":"Feature","properties":{"UserID":0,"区域站级别":"骨干站","OBTID":"P4043","OBTName":"谭家场站","CityName":"怀化市","CountyName":"辰溪县","Height":488.0,"TownShipName":"谭家场乡","Lon":110.456667,"Lat":27.9675,"remark":""},"geometry":{"type":"Point","coordinates":[110.456667,27.9675]}},{"type":"Feature","properties":{"UserID":0,"区域站级别":"骨干站","OBTID":"P4123","OBTName":"江口站","CityName":"怀化市","CountyName":"溆浦县","Height":200.0,"TownShipName":"大江口镇","Lon":110.393333,"Lat":27.869722,"remark":""},"geometry":{"type":"Point","coordinates":[110.393333,27.869722]}},{"type":"Feature","properties":{"UserID":0,"区域站级别":"骨干站","OBTID":"P4167","OBTName":"江口村站","CityName":"怀化市","CountyName":"通道县","Height":341.0,"TownShipName":"县溪镇","Lon":109.658889,"Lat":26.352222,"remark":""},"geometry":{"type":"Point","coordinates":[109.658889,26.352222]}},{"type":"Feature","properties":{"UserID":0,"区域站级别":"骨干站","OBTID":"P3782","OBTName":"锦和站","CityName":"怀化市","CountyName":"麻阳县","Height":280.0,"TownShipName":"锦和镇","Lon":109.603889,"Lat":27.702222,"remark":""},"geometry":{"type":"Point","coordinates":[109.603889,27.702222]}},{"type":"Feature","properties":{"UserID":0,"区域站级别":"骨干站","OBTID":"P4131","OBTName":"横板桥站","CityName":"怀化市","CountyName":"溆浦县","Height":510.0,"TownShipName":"龙潭镇","Lon":110.513333,"Lat":27.405278,"remark":""},"geometry":{"type":"Point","coordinates":[110.513333,27.405278]}},{"type":"Feature","properties":{"UserID":0,"区域站级别":"骨干站","OBTID":"P3790","OBTName":"贺家田站","CityName":"怀化市","CountyName":"鹤城区","Height":237.0,"TownShipName":"凉亭坳乡","Lon":109.849167,"Lat":27.684722,"remark":""},"geometry":{"type":"Point","coordinates":[109.849167,27.684722]}},{"type":"Feature","properties":{"UserID":0,"区域站级别":"骨干站","OBTID":"P3763","OBTName":"黄土溪站","CityName":"怀化市","CountyName":"麻阳县","Height":223.0,"TownShipName":"岩门镇","Lon":109.697222,"Lat":27.896111,"remark":""},"geometry":{"type":"Point","coordinates":[109.697222,27.896111]}},{"type":"Feature","properties":{"UserID":0,"区域站级别":"骨干站","OBTID":"P3778","OBTName":"黄溪口站","CityName":"怀化市","CountyName":"辰溪县","Height":191.0,"TownShipName":"黄溪口镇","Lon":110.386389,"Lat":27.72,"remark":""},"geometry":{"type":"Point","coordinates":[110.386389,27.72]}},{"type":"Feature","properties":{"UserID":0,"区域站级别":"骨干站","OBTID":"P3783","OBTName":"花桥站","CityName":"怀化市","CountyName":"中方县","Height":203.0,"TownShipName":"花桥镇","Lon":110.155556,"Lat":27.714167,"remark":""},"geometry":{"type":"Point","coordinates":[110.155556,27.714167]}},{"type":"Feature","properties":{"UserID":0,"区域站级别":"骨干站","OBTID":"P3820","OBTName":"洪江区","CityName":"怀化市","CountyName":"洪江区","Height":579.0,"TownShipName":"河滨路街道","Lon":109.978333,"Lat":27.116111,"remark":""},"geometry":{"type":"Point","coordinates":[109.978333,27.116111]}},{"type":"Feature","properties":{"UserID":0,"区域站级别":"骨干站","OBTID":"P4080","OBTName":"红敏","CityName":"怀化市","CountyName":"辰溪县","Height":163.0,"TownShipName":"安坪镇","Lon":110.102222,"Lat":27.8575,"remark":""},"geometry":{"type":"Point","coordinates":[110.102222,27.8575]}},{"type":"Feature","properties":{"UserID":0,"区域站级别":"骨干站","OBTID":"P3918","OBTName":"陇城村站","CityName":"怀化市","CountyName":"通道县","Height":512.0,"TownShipName":"陇城镇","Lon":109.77,"Lat":26.011944,"remark":""},"geometry":{"type":"Point","coordinates":[109.77,26.011944]}},{"type":"Feature","properties":{"UserID":0,"区域站级别":"骨干站","OBTID":"P4198","OBTName":"落坪站","CityName":"怀化市","CountyName":"沅陵县","Height":128.0,"TownShipName":"北溶乡","Lon":110.533333,"Lat":28.692222,"remark":""},"geometry":{"type":"Point","coordinates":[110.533333,28.692222]}},{"type":"Feature","properties":{"UserID":0,"区域站级别":"骨干站","OBTID":"P3853","OBTName":"梨溪口站","CityName":"怀化市","CountyName":"芷江县","Height":466.0,"TownShipName":"梨溪口乡","Lon":109.4775,"Lat":27.308889,"remark":""},"geometry":{"type":"Point","coordinates":[109.4775,27.308889]}},{"type":"Feature","properties":{"UserID":0,"区域站级别":"骨干站","OBTID":"P3781","OBTName":"两丫坪站","CityName":"怀化市","CountyName":"溆浦县","Height":300.0,"TownShipName":"两丫坪镇","Lon":110.683333,"Lat":27.715,"remark":""},"geometry":{"type":"Point","coordinates":[110.683333,27.715]}},{"type":"Feature","properties":{"UserID":0,"区域站级别":"骨干站","OBTID":"P3751","OBTName":"两江站","CityName":"怀化市","CountyName":"溆浦县","Height":294.0,"TownShipName":"三江镇","Lon":110.83611,"Lat":27.951111,"remark":""},"geometry":{"type":"Point","coordinates":[110.83611,27.951111]}},{"type":"Feature","properties":{"UserID":0,"区域站级别":"骨干站","OBTID":"P8296","OBTName":"鲤鱼塘镇国土所","CityName":"郴州市","CountyName":"永兴县","Height":191.0,"TownShipName":"鲤鱼塘镇","Lon":113.339444,"Lat":26.179167,"remark":""},"geometry":{"type":"Point","coordinates":[113.339444,26.179167]}},{"type":"Feature","properties":{"UserID":0,"区域站级别":"骨干站","OBTID":"P8481","OBTName":"蓼江镇东湾","CityName":"郴州市","CountyName":"资兴市","Height":123.0,"TownShipName":"蓼江镇","Lon":113.263889,"Lat":26.077222,"remark":""},"geometry":{"type":"Point","coordinates":[113.263889,26.077222]}},{"type":"Feature","properties":{"UserID":0,"区域站级别":"骨干站","OBTID":"P8274","OBTName":"太和","CityName":"郴州市","CountyName":"永兴县","Height":176.0,"TownShipName":"太和镇","Lon":113.226111,"Lat":26.312778,"remark":""},"geometry":{"type":"Point","coordinates":[113.226111,26.312778]}},{"type":"Feature","properties":{"UserID":0,"区域站级别":"骨干站","OBTID":"P8291","OBTName":"马田镇邝家","CityName":"郴州市","CountyName":"永兴县","Height":213.0,"TownShipName":"马田镇","Lon":112.855833,"Lat":26.105833,"remark":""},"geometry":{"type":"Point","coordinates":[112.855833,26.105833]}},{"type":"Feature","properties":{"UserID":0,"区域站级别":"骨干站","OBTID":"P8483","OBTName":"滁口镇高湾","CityName":"郴州市","CountyName":"资兴市","Height":290.0,"TownShipName":"滁口镇","Lon":113.403611,"Lat":25.731944,"remark":""},"geometry":{"type":"Point","coordinates":[113.403611,25.731944]}},{"type":"Feature","properties":{"UserID":0,"区域站级别":"骨干站","OBTID":"P8392","OBTName":"五里牌","CityName":"郴州市","CountyName":"苏仙区","Height":124.0,"TownShipName":"五里牌镇","Lon":113.050833,"Lat":25.966111,"remark":""},"geometry":{"type":"Point","coordinates":[113.050833,25.966111]}},{"type":"Feature","properties":{"UserID":0,"区域站级别":"骨干站","OBTID":"P8433","OBTName":"五盖山","CityName":"郴州市","CountyName":"苏仙区","Height":811.0,"TownShipName":"五盖山镇","Lon":113.148889,"Lat":25.683889,"remark":""},"geometry":{"type":"Point","coordinates":[113.148889,25.683889]}},{"type":"Feature","properties":{"UserID":0,"区域站级别":"骨干站","OBTID":"P8767","OBTName":"九龙江森林公园","CityName":"郴州市","CountyName":"汝城县","Height":278.0,"TownShipName":"三江口镇","Lon":113.778889,"Lat":25.398889,"remark":""},"geometry":{"type":"Point","coordinates":[113.778889,25.398889]}},{"type":"Feature","properties":{"UserID":0,"区域站级别":"骨干站","OBTID":"P8442","OBTName":"良田镇百丈","CityName":"郴州市","CountyName":"苏仙区","Height":339.0,"TownShipName":"良田镇","Lon":113.04,"Lat":25.610556,"remark":""},"geometry":{"type":"Point","coordinates":[113.04,25.610556]}},{"type":"Feature","properties":{"UserID":0,"区域站级别":"骨干站","OBTID":"P8681","OBTName":"八面山乡团桥","CityName":"郴州市","CountyName":"资兴市","Height":366.0,"TownShipName":"八面山瑶族乡","Lon":113.586667,"Lat":25.995,"remark":""},"geometry":{"type":"Point","coordinates":[113.586667,25.995]}},{"type":"Feature","properties":{"UserID":0,"区域站级别":"骨干站","OBTID":"P8236","OBTName":"石壁垄水库","CityName":"郴州市","CountyName":"永兴县","Height":181.0,"TownShipName":"柏林镇","Lon":113.298056,"Lat":26.328611,"remark":""},"geometry":{"type":"Point","coordinates":[113.298056,26.328611]}},{"type":"Feature","properties":{"UserID":0,"区域站级别":"骨干站","OBTID":"P8527","OBTName":"白廊","CityName":"郴州市","CountyName":"资兴市","Height":280.0,"TownShipName":"白廊镇","Lon":113.406667,"Lat":25.887778,"remark":""},"geometry":{"type":"Point","coordinates":[113.406667,25.887778]}},{"type":"Feature","properties":{"UserID":0,"区域站级别":"骨干站","OBTID":"P8540","OBTName":"青山","CityName":"郴州市","CountyName":"桂东县","Height":700.0,"TownShipName":"青山乡","Lon":113.7,"Lat":25.913889,"remark":""},"geometry":{"type":"Point","coordinates":[113.7,25.913889]}},{"type":"Feature","properties":{"UserID":0,"区域站级别":"骨干站","OBTID":"P8545","OBTName":"大塘","CityName":"郴州市","CountyName":"桂东县","Height":850.0,"TownShipName":"大塘镇","Lon":113.866667,"Lat":25.933056,"remark":""},"geometry":{"type":"Point","coordinates":[113.866667,25.933056]}},{"type":"Feature","properties":{"UserID":0,"区域站级别":"骨干站","OBTID":"P8594","OBTName":"观音山水库","CityName":"郴州市","CountyName":"嘉禾县","Height":230.0,"TownShipName":"普满乡","Lon":112.533333,"Lat":25.672222,"remark":""},"geometry":{"type":"Point","coordinates":[112.533333,25.672222]}},{"type":"Feature","properties":{"UserID":0,"区域站级别":"骨干站","OBTID":"P8214","OBTName":"金紫仙镇茶安水库","CityName":"郴州市","CountyName":"安仁县","Height":217.0,"TownShipName":"金紫仙镇","Lon":113.489444,"Lat":26.458611,"remark":""},"geometry":{"type":"Point","coordinates":[113.489444,26.458611]}},{"type":"Feature","properties":{"UserID":0,"区域站级别":"骨干站","OBTID":"P8201","OBTName":"渡口","CityName":"郴州市","CountyName":"安仁县","Height":93.0,"TownShipName":"渡口乡","Lon":113.198056,"Lat":26.798333,"remark":""},"geometry":{"type":"Point","coordinates":[113.198056,26.798333]}},{"type":"Feature","properties":{"UserID":0,"区域站级别":"骨干站","OBTID":"P8396","OBTName":"华塘镇机场站","CityName":"郴州市","CountyName":"北湖区","Height":285.0,"TownShipName":"华塘镇","Lon":112.866389,"Lat":25.7525,"remark":""},"geometry":{"type":"Point","coordinates":[112.866389,25.7525]}},{"type":"Feature","properties":{"UserID":0,"区域站级别":"骨干站","OBTID":"P8888","OBTName":"鲁塘镇太山里","CityName":"郴州市","CountyName":"北湖区","Height":1150.0,"TownShipName":"鲁塘镇","Lon":112.757778,"Lat":25.518056,"remark":""},"geometry":{"type":"Point","coordinates":[112.757778,25.518056]}},{"type":"Feature","properties":{"UserID":0,"区域站级别":"骨干站","OBTID":"P8683","OBTName":"牌楼","CityName":"郴州市","CountyName":"安仁县","Height":108.0,"TownShipName":"牌楼乡","Lon":113.339444,"Lat":26.611389,"remark":""},"geometry":{"type":"Point","coordinates":[113.339444,26.611389]}},{"type":"Feature","properties":{"UserID":0,"区域站级别":"骨干站","OBTID":"P8656","OBTName":"水东镇深渡","CityName":"郴州市","CountyName":"临武县","Height":273.0,"TownShipName":"水东镇","Lon":112.7275,"Lat":25.389167,"remark":""},"geometry":{"type":"Point","coordinates":[112.7275,25.389167]}},{"type":"Feature","properties":{"UserID":0,"区域站级别":"骨干站","OBTID":"P8648","OBTName":"南强镇邹家","CityName":"郴州市","CountyName":"临武县","Height":340.0,"TownShipName":"南强镇","Lon":112.635278,"Lat":25.166389,"remark":""},"geometry":{"type":"Point","coordinates":[112.635278,25.166389]}},{"type":"Feature","properties":{"UserID":0,"区域站级别":"骨干站","OBTID":"P8751","OBTName":"文明水库","CityName":"郴州市","CountyName":"汝城县","Height":460.0,"TownShipName":"文明乡","Lon":113.368333,"Lat":25.530278,"remark":""},"geometry":{"type":"Point","coordinates":[113.368333,25.530278]}},{"type":"Feature","properties":{"UserID":0,"区域站级别":"骨干站","OBTID":"P8682","OBTName":"暖水镇文泉","CityName":"郴州市","CountyName":"汝城县","Height":314.8,"TownShipName":"暖水镇","Lon":113.719167,"Lat":25.7125,"remark":""},"geometry":{"type":"Point","coordinates":[113.719167,25.7125]}},{"type":"Feature","properties":{"UserID":0,"区域站级别":"骨干站","OBTID":"P8755","OBTName":"延寿乡小垣","CityName":"郴州市","CountyName":"汝城县","Height":942.0,"TownShipName":"延寿乡","Lon":113.523889,"Lat":25.380556,"remark":""},"geometry":{"type":"Point","coordinates":[113.523889,25.380556]}},{"type":"Feature","properties":{"UserID":0,"区域站级别":"骨干站","OBTID":"P8314","OBTName":"舂陵江镇飞仙","CityName":"郴州市","CountyName":"桂阳县","Height":216.0,"TownShipName":"舂陵江镇","Lon":112.447222,"Lat":25.809167,"remark":""},"geometry":{"type":"Point","coordinates":[112.447222,25.809167]}},{"type":"Feature","properties":{"UserID":0,"区域站级别":"骨干站","OBTID":"P8316","OBTName":"莲塘","CityName":"郴州市","CountyName":"桂阳县","Height":298.0,"TownShipName":"莲塘镇","Lon":112.465556,"Lat":26.088333,"remark":""},"geometry":{"type":"Point","coordinates":[112.465556,26.088333]}},{"type":"Feature","properties":{"UserID":0,"区域站级别":"骨干站","OBTID":"P8317","OBTName":"敖泉镇湘山村","CityName":"郴州市","CountyName":"桂阳县","Height":261.0,"TownShipName":"敖泉镇","Lon":112.620278,"Lat":25.937222,"remark":""},"geometry":{"type":"Point","coordinates":[112.620278,25.937222]}},{"type":"Feature","properties":{"UserID":0,"区域站级别":"骨干站","OBTID":"P8642","OBTName":"万水乡林里","CityName":"郴州市","CountyName":"临武县","Height":400.0,"TownShipName":"万水乡","Lon":112.434167,"Lat":25.449444,"remark":""},"geometry":{"type":"Point","coordinates":[112.434167,25.449444]}},{"type":"Feature","properties":{"UserID":0,"区域站级别":"骨干站","OBTID":"P8413","OBTName":"洋市","CityName":"郴州市","CountyName":"桂阳县","Height":231.0,"TownShipName":"洋市镇","Lon":112.79,"Lat":25.95,"remark":""},"geometry":{"type":"Point","coordinates":[112.79,25.95]}},{"type":"Feature","properties":{"UserID":0,"区域站级别":"骨干站","OBTID":"P8499","OBTName":"州门司","CityName":"郴州市","CountyName":"资兴市","Height":620.0,"TownShipName":"州门司镇","Lon":113.539722,"Lat":26.098889,"remark":""},"geometry":{"type":"Point","coordinates":[113.539722,26.098889]}},{"type":"Feature","properties":{"UserID":0,"区域站级别":"骨干站","OBTID":"P6954","OBTName":"柏坊镇","CityName":"衡阳市","CountyName":"常宁市","Height":74.0,"TownShipName":"柏坊镇","Lon":112.59,"Lat":26.578056,"remark":""},"geometry":{"type":"Point","coordinates":[112.59,26.578056]}},{"type":"Feature","properties":{"UserID":0,"区域站级别":"骨干站","OBTID":"P7168","OBTName":"洪山镇光辉","CityName":"衡阳市","CountyName":"衡南县","Height":100.0,"TownShipName":"洪山镇","Lon":112.873889,"Lat":26.791389,"remark":""},"geometry":{"type":"Point","coordinates":[112.873889,26.791389]}},{"type":"Feature","properties":{"UserID":0,"区域站级别":"骨干站","OBTID":"P7172","OBTName":"硫市","CityName":"衡阳市","CountyName":"衡南县","Height":115.0,"TownShipName":"硫市镇","Lon":112.461667,"Lat":26.708889,"remark":""},"geometry":{"type":"Point","coordinates":[112.461667,26.708889]}},{"type":"Feature","properties":{"UserID":0,"区域站级别":"骨干站","OBTID":"P7165","OBTName":"花桥镇川口","CityName":"衡阳市","CountyName":"衡南县","Height":158.0,"TownShipName":"花桥镇","Lon":113.017222,"Lat":26.882778,"remark":""},"geometry":{"type":"Point","coordinates":[113.017222,26.882778]}},{"type":"Feature","properties":{"UserID":0,"区域站级别":"骨干站","OBTID":"P7160","OBTName":"柞市","CityName":"衡阳市","CountyName":"衡南县","Height":118.0,"TownShipName":"柞市镇","Lon":112.308056,"Lat":26.728889,"remark":""},"geometry":{"type":"Point","coordinates":[112.308056,26.728889]}},{"type":"Feature","properties":{"UserID":0,"区域站级别":"骨干站","OBTID":"P7051","OBTName":"新桥水库","CityName":"衡阳市","CountyName":"衡山县","Height":135.8,"TownShipName":"新桥镇","Lon":112.526667,"Lat":27.369167,"remark":""},"geometry":{"type":"Point","coordinates":[112.526667,27.369167]}},{"type":"Feature","properties":{"UserID":0,"区域站级别":"骨干站","OBTID":"P6977","OBTName":"铜钟岭林场","CityName":"衡阳市","CountyName":"常宁市","Height":243.0,"TownShipName":"洋泉镇","Lon":112.269444,"Lat":26.270556,"remark":""},"geometry":{"type":"Point","coordinates":[112.269444,26.270556]}},{"type":"Feature","properties":{"UserID":0,"区域站级别":"骨干站","OBTID":"P7017","OBTName":"德圳水库","CityName":"衡阳市","CountyName":"衡东县","Height":121.0,"TownShipName":"吴集镇","Lon":112.888611,"Lat":26.943889,"remark":""},"geometry":{"type":"Point","coordinates":[112.888611,26.943889]}},{"type":"Feature","properties":{"UserID":0,"区域站级别":"骨干站","OBTID":"P7022","OBTName":"霞流","CityName":"衡阳市","CountyName":"衡东县","Height":97.0,"TownShipName":"霞流镇","Lon":112.828056,"Lat":27.063889,"remark":""},"geometry":{"type":"Point","coordinates":[112.828056,27.063889]}},{"type":"Feature","properties":{"UserID":0,"区域站级别":"骨干站","OBTID":"P7007","OBTName":"荣桓","CityName":"衡阳市","CountyName":"衡东县","Height":125.0,"TownShipName":"荣桓镇","Lon":113.1375,"Lat":27.105,"remark":""},"geometry":{"type":"Point","coordinates":[113.1375,27.105]}},{"type":"Feature","properties":{"UserID":0,"区域站级别":"骨干站","OBTID":"P7009","OBTName":"高湖","CityName":"衡阳市","CountyName":"衡东县","Height":83.0,"TownShipName":"高湖镇","Lon":113.161111,"Lat":26.947222,"remark":""},"geometry":{"type":"Point","coordinates":[113.161111,26.947222]}},{"type":"Feature","properties":{"UserID":0,"区域站级别":"骨干站","OBTID":"P4919","OBTName":"农之源","CityName":"湘潭市","CountyName":"湘乡市","Height":150.0,"TownShipName":"翻江镇","Lon":112.218611,"Lat":27.818056,"remark":""},"geometry":{"type":"Point","coordinates":[112.218611,27.818056]}},{"type":"Feature","properties":{"UserID":0,"区域站级别":"骨干站","OBTID":"P4862","OBTName":"茶恩寺镇","CityName":"湘潭市","CountyName":"湘潭县","Height":64.0,"TownShipName":"茶恩寺镇","Lon":112.823611,"Lat":27.373611,"remark":""},"geometry":{"type":"Point","coordinates":[112.823611,27.373611]}},{"type":"Feature","properties":{"UserID":0,"区域站级别":"骨干站","OBTID":"P4852","OBTName":"中路铺水库","CityName":"湘潭市","CountyName":"湘潭县","Height":71.0,"TownShipName":"中路铺镇","Lon":112.905833,"Lat":27.554167,"remark":""},"geometry":{"type":"Point","coordinates":[112.905833,27.554167]}},{"type":"Feature","properties":{"UserID":0,"区域站级别":"骨干站","OBTID":"P4873","OBTName":"梅林桥村","CityName":"湘潭市","CountyName":"湘潭县","Height":74.0,"TownShipName":"易俗河镇","Lon":112.966944,"Lat":27.699722,"remark":""},"geometry":{"type":"Point","coordinates":[112.966944,27.699722]}},{"type":"Feature","properties":{"UserID":0,"区域站级别":"骨干站","OBTID":"P4851","OBTName":"严冲水库","CityName":"湘潭市","CountyName":"湘潭县","Height":101.0,"TownShipName":"排头乡","Lon":112.650556,"Lat":27.583611,"remark":""},"geometry":{"type":"Point","coordinates":[112.650556,27.583611]}},{"type":"Feature","properties":{"UserID":0,"区域站级别":"骨干站","OBTID":"P4865","OBTName":"九华","CityName":"湘潭市","CountyName":"雨湖区","Height":39.0,"TownShipName":"响水乡","Lon":112.9382,"Lat":27.9437,"remark":""},"geometry":{"type":"Point","coordinates":[112.9382,27.9437]}},{"type":"Feature","properties":{"UserID":0,"区域站级别":"骨干站","OBTID":"P6520","OBTName":"晏田","CityName":"邵阳市","CountyName":"武冈市","Height":390.0,"TownShipName":"晏田乡","Lon":110.742778,"Lat":26.770278,"remark":""},"geometry":{"type":"Point","coordinates":[110.742778,26.770278]}},{"type":"Feature","properties":{"UserID":0,"区域站级别":"骨干站","OBTID":"P6561","OBTName":"马头桥","CityName":"邵阳市","CountyName":"新宁县","Height":140.0,"TownShipName":"马头桥镇","Lon":111.046944,"Lat":26.775556,"remark":""},"geometry":{"type":"Point","coordinates":[111.046944,26.775556]}},{"type":"Feature","properties":{"UserID":0,"区域站级别":"骨干站","OBTID":"P6530","OBTName":"邓家铺","CityName":"邵阳市","CountyName":"武冈市","Height":310.0,"TownShipName":"邓家铺镇","Lon":110.945,"Lat":26.889167,"remark":""},"geometry":{"type":"Point","coordinates":[110.945,26.889167]}},{"type":"Feature","properties":{"UserID":0,"区域站级别":"骨干站","OBTID":"P6487","OBTName":"瓦屋","CityName":"邵阳市","CountyName":"绥宁县","Height":533.0,"TownShipName":"瓦屋塘镇","Lon":110.333889,"Lat":26.933056,"remark":""},"geometry":{"type":"Point","coordinates":[110.333889,26.933056]}},{"type":"Feature","properties":{"UserID":0,"区域站级别":"骨干站","OBTID":"P6489","OBTName":"东山","CityName":"邵阳市","CountyName":"绥宁县","Height":395.0,"TownShipName":"东山乡","Lon":109.912222,"Lat":26.616667,"remark":""},"geometry":{"type":"Point","coordinates":[109.912222,26.616667]}},{"type":"Feature","properties":{"UserID":0,"区域站级别":"骨干站","OBTID":"P6488","OBTName":"武阳","CityName":"邵阳市","CountyName":"绥宁县","Height":430.0,"TownShipName":"武阳镇","Lon":110.312778,"Lat":26.727778,"remark":""},"geometry":{"type":"Point","coordinates":[110.312778,26.727778]}},{"type":"Feature","properties":{"UserID":0,"区域站级别":"骨干站","OBTID":"P6607","OBTName":"西岩","CityName":"邵阳市","CountyName":"城步县","Height":395.0,"TownShipName":"西岩镇","Lon":110.475,"Lat":26.620833,"remark":""},"geometry":{"type":"Point","coordinates":[110.475,26.620833]}},{"type":"Feature","properties":{"UserID":0,"区域站级别":"骨干站","OBTID":"P6612","OBTName":"兰蓉","CityName":"邵阳市","CountyName":"城步县","Height":630.0,"TownShipName":"兰蓉乡","Lon":110.423889,"Lat":26.2975,"remark":""},"geometry":{"type":"Point","coordinates":[110.423889,26.2975]}},{"type":"Feature","properties":{"UserID":0,"区域站级别":"骨干站","OBTID":"P6605","OBTName":"蒋坊","CityName":"邵阳市","CountyName":"城步县","Height":428.2,"TownShipName":"蒋坊乡","Lon":110.413056,"Lat":26.501111,"remark":""},"geometry":{"type":"Point","coordinates":[110.413056,26.501111]}},{"type":"Feature","properties":{"UserID":0,"区域站级别":"骨干站","OBTID":"P6622","OBTName":"南山","CityName":"邵阳市","CountyName":"城步县","Height":1620.5,"TownShipName":"长安营镇","Lon":110.116667,"Lat":26.170556,"remark":""},"geometry":{"type":"Point","coordinates":[110.116667,26.170556]}},{"type":"Feature","properties":{"UserID":0,"区域站级别":"骨干站","OBTID":"P6617","OBTName":"汀坪","CityName":"邵阳市","CountyName":"城步县","Height":788.7,"TownShipName":"汀坪乡","Lon":110.271389,"Lat":26.112222,"remark":""},"geometry":{"type":"Point","coordinates":[110.271389,26.112222]}},{"type":"Feature","properties":{"UserID":0,"区域站级别":"骨干站","OBTID":"P6574","OBTName":"麻林","CityName":"邵阳市","CountyName":"新宁县","Height":101.0,"TownShipName":"麻林乡","Lon":110.641944,"Lat":26.461389,"remark":""},"geometry":{"type":"Point","coordinates":[110.641944,26.461389]}},{"type":"Feature","properties":{"UserID":0,"区域站级别":"骨干站","OBTID":"P6567","OBTName":"一渡水","CityName":"邵阳市","CountyName":"新宁县","Height":103.0,"TownShipName":"一渡水镇","Lon":111.211667,"Lat":26.621944,"remark":""},"geometry":{"type":"Point","coordinates":[111.211667,26.621944]}},{"type":"Feature","properties":{"UserID":0,"区域站级别":"骨干站","OBTID":"P6570","OBTName":"黄龙","CityName":"邵阳市","CountyName":"新宁县","Height":302.0,"TownShipName":"黄龙镇","Lon":110.948056,"Lat":26.543333,"remark":""},"geometry":{"type":"Point","coordinates":[110.948056,26.543333]}},{"type":"Feature","properties":{"UserID":0,"区域站级别":"骨干站","OBTID":"P6579","OBTName":"~山","CityName":"邵阳市","CountyName":"新宁县","Height":321.0,"TownShipName":"~山镇","Lon":110.792778,"Lat":26.293333,"remark":""},"geometry":{"type":"Point","coordinates":[110.792778,26.293333]}},{"type":"Feature","properties":{"UserID":0,"区域站级别":"骨干站","OBTID":"P1395","OBTName":"农车","CityName":"湘西州","CountyName":"龙山县","Height":590.0,"TownShipName":"农车镇","Lon":109.624167,"Lat":29.177778,"remark":""},"geometry":{"type":"Point","coordinates":[109.624167,29.177778]}},{"type":"Feature","properties":{"UserID":0,"区域站级别":"骨干站","OBTID":"P1485","OBTName":"贾市校园站","CityName":"湘西州","CountyName":"龙山县","Height":264.0,"TownShipName":"里耶镇","Lon":109.405,"Lat":28.951944,"remark":""},"geometry":{"type":"Point","coordinates":[109.405,28.951944]}},{"type":"Feature","properties":{"UserID":0,"区域站级别":"骨干站","OBTID":"P1371","OBTName":"能滩","CityName":"湘西州","CountyName":"泸溪县","Height":242.0,"TownShipName":"洗溪镇","Lon":109.977778,"Lat":28.223611,"remark":""},"geometry":{"type":"Point","coordinates":[109.977778,28.223611]}},{"type":"Feature","properties":{"UserID":0,"区域站级别":"骨干站","OBTID":"P1321","OBTName":"岩门溪水库","CityName":"湘西州","CountyName":"泸溪县","Height":139.0,"TownShipName":"浦市镇","Lon":110.091111,"Lat":28.074444,"remark":""},"geometry":{"type":"Point","coordinates":[110.091111,28.074444]}},{"type":"Feature","properties":{"UserID":0,"区域站级别":"骨干站","OBTID":"P1001","OBTName":"茨岩塘","CityName":"湘西州","CountyName":"龙山县","Height":1129.0,"TownShipName":"茨岩塘镇","Lon":109.607778,"Lat":29.410556,"remark":""},"geometry":{"type":"Point","coordinates":[109.607778,29.410556]}},{"type":"Feature","properties":{"UserID":0,"区域站级别":"骨干站","OBTID":"P1393","OBTName":"乌鸦","CityName":"湘西州","CountyName":"龙山县","Height":845.0,"TownShipName":"大安乡","Lon":109.708056,"Lat":29.577222,"remark":""},"geometry":{"type":"Point","coordinates":[109.708056,29.577222]}},{"type":"Feature","properties":{"UserID":0,"区域站级别":"骨干站","OBTID":"P1009","OBTName":"里耶","CityName":"湘西州","CountyName":"龙山县","Height":269.0,"TownShipName":"里耶镇","Lon":109.302222,"Lat":28.805278,"remark":""},"geometry":{"type":"Point","coordinates":[109.302222,28.805278]}},{"type":"Feature","properties":{"UserID":0,"区域站级别":"骨干站","OBTID":"P1018","OBTName":"贾坝","CityName":"湘西州","CountyName":"龙山县","Height":678.0,"TownShipName":"召市镇","Lon":109.388889,"Lat":29.142778,"remark":""},"geometry":{"type":"Point","coordinates":[109.388889,29.142778]}},{"type":"Feature","properties":{"UserID":0,"区域站级别":"骨干站","OBTID":"P1006","OBTName":"召市","CityName":"湘西州","CountyName":"龙山县","Height":1224.0,"TownShipName":"召市镇","Lon":109.413611,"Lat":29.289722,"remark":""},"geometry":{"type":"Point","coordinates":[109.413611,29.289722]}},{"type":"Feature","properties":{"UserID":0,"区域站级别":"骨干站","OBTID":"P1446","OBTName":"柏杨","CityName":"湘西州","CountyName":"永顺县","Height":284.9,"TownShipName":"泽家镇","Lon":109.736389,"Lat":28.811389,"remark":""},"geometry":{"type":"Point","coordinates":[109.736389,28.811389]}},{"type":"Feature","properties":{"UserID":0,"区域站级别":"骨干站","OBTID":"P1083","OBTName":"盐井","CityName":"湘西州","CountyName":"永顺县","Height":761.6,"TownShipName":"盐井乡","Lon":109.771944,"Lat":29.195278,"remark":""},"geometry":{"type":"Point","coordinates":[109.771944,29.195278]}},{"type":"Feature","properties":{"UserID":0,"区域站级别":"骨干站","OBTID":"P1480","OBTName":"车坪里仁村","CityName":"湘西州","CountyName":"永顺县","Height":427.0,"TownShipName":"车坪乡","Lon":110.010278,"Lat":29.141111,"remark":""},"geometry":{"type":"Point","coordinates":[110.010278,29.141111]}},{"type":"Feature","properties":{"UserID":0,"区域站级别":"骨干站","OBTID":"P1070","OBTName":"石堤","CityName":"湘西州","CountyName":"永顺县","Height":543.6,"TownShipName":"石堤镇","Lon":110.137778,"Lat":29.018889,"remark":""},"geometry":{"type":"Point","coordinates":[110.137778,29.018889]}},{"type":"Feature","properties":{"UserID":0,"区域站级别":"骨干站","OBTID":"P1074","OBTName":"高坪","CityName":"湘西州","CountyName":"永顺县","Height":541.0,"TownShipName":"高坪乡","Lon":109.98,"Lat":28.851944,"remark":""},"geometry":{"type":"Point","coordinates":[109.98,28.851944]}},{"type":"Feature","properties":{"UserID":0,"区域站级别":"骨干站","OBTID":"P1063","OBTName":"西岐","CityName":"湘西州","CountyName":"永顺县","Height":434.2,"TownShipName":"西歧乡","Lon":109.668333,"Lat":28.986667,"remark":""},"geometry":{"type":"Point","coordinates":[109.668333,28.986667]}},{"type":"Feature","properties":{"UserID":0,"区域站级别":"骨干站","OBTID":"P1359","OBTName":"新场","CityName":"湘西州","CountyName":"凤凰县","Height":421.0,"TownShipName":"新场镇","Lon":109.447222,"Lat":27.875278,"remark":""},"geometry":{"type":"Point","coordinates":[109.447222,27.875278]}},{"type":"Feature","properties":{"UserID":0,"区域站级别":"骨干站","OBTID":"P1208","OBTName":"默戎","CityName":"湘西州","CountyName":"古丈县","Height":293.0,"TownShipName":"默戎镇","Lon":109.844444,"Lat":28.490278,"remark":""},"geometry":{"type":"Point","coordinates":[109.844444,28.490278]}},{"type":"Feature","properties":{"UserID":0,"区域站级别":"骨干站","OBTID":"P1203","OBTName":"断龙山","CityName":"湘西州","CountyName":"古丈县","Height":412.0,"TownShipName":"断龙山镇","Lon":109.825,"Lat":28.693889,"remark":""},"geometry":{"type":"Point","coordinates":[109.825,28.693889]}},{"type":"Feature","properties":{"UserID":0,"区域站级别":"骨干站","OBTID":"P1347","OBTName":"山江","CityName":"湘西州","CountyName":"凤凰县","Height":627.0,"TownShipName":"山江镇","Lon":109.4675,"Lat":28.044167,"remark":""},"geometry":{"type":"Point","coordinates":[109.4675,28.044167]}},{"type":"Feature","properties":{"UserID":0,"区域站级别":"骨干站","OBTID":"P1232","OBTName":"德夯旅游气象站","CityName":"湘西州","CountyName":"吉首市","Height":278.0,"TownShipName":"矮寨镇","Lon":109.597222,"Lat":28.347778,"remark":""},"geometry":{"type":"Point","coordinates":[109.597222,28.347778]}},{"type":"Feature","properties":{"UserID":0,"区域站级别":"骨干站","OBTID":"P4432","OBTName":"白溪","CityName":"娄底市","CountyName":"新化县","Height":214.0,"TownShipName":"白溪镇","Lon":111.33,"Lat":28.028056,"remark":""},"geometry":{"type":"Point","coordinates":[111.33,28.028056]}},{"type":"Feature","properties":{"UserID":0,"区域站级别":"骨干站","OBTID":"P4435","OBTName":"古台山","CityName":"娄底市","CountyName":"新化县","Height":494.0,"TownShipName":"古台山林场","Lon":111.064167,"Lat":27.794444,"remark":""},"geometry":{"type":"Point","coordinates":[111.064167,27.794444]}},{"type":"Feature","properties":{"UserID":0,"区域站级别":"骨干站","OBTID":"P4481","OBTName":"大桥村","CityName":"娄底市","CountyName":"新化县","Height":857.0,"TownShipName":"奉家镇","Lon":110.8925,"Lat":27.752222,"remark":""},"geometry":{"type":"Point","coordinates":[110.8925,27.752222]}},{"type":"Feature","properties":{"UserID":0,"区域站级别":"骨干站","OBTID":"P4440","OBTName":"半山水库","CityName":"娄底市","CountyName":"新化县","Height":274.0,"TownShipName":"槎溪镇","Lon":111.100556,"Lat":27.624444,"remark":""},"geometry":{"type":"Point","coordinates":[111.100556,27.624444]}},{"type":"Feature","properties":{"UserID":0,"区域站级别":"骨干站","OBTID":"P4662","OBTName":"杏子","CityName":"娄底市","CountyName":"双峰县","Height":100.0,"TownShipName":"杏子铺镇","Lon":112.234722,"Lat":27.619722,"remark":""},"geometry":{"type":"Point","coordinates":[112.234722,27.619722]}},{"type":"Feature","properties":{"UserID":0,"区域站级别":"骨干站","OBTID":"P4446","OBTName":"水竹","CityName":"娄底市","CountyName":"新化县","Height":310.0,"TownShipName":"曹家镇","Lon":111.383333,"Lat":27.875556,"remark":""},"geometry":{"type":"Point","coordinates":[111.383333,27.875556]}},{"type":"Feature","properties":{"UserID":0,"区域站级别":"骨干站","OBTID":"P4023","OBTName":"新厂站","CityName":"怀化市","CountyName":"靖州县","Height":438.0,"TownShipName":"新厂镇","Lon":109.431667,"Lat":26.351667,"remark":""},"geometry":{"type":"Point","coordinates":[109.431667,26.351667]}},{"type":"Feature","properties":{"UserID":0,"区域站级别":"骨干站","OBTID":"P4079","OBTName":"新田站","CityName":"怀化市","CountyName":"溆浦县","Height":382.0,"TownShipName":"桥江镇","Lon":110.735833,"Lat":27.880556,"remark":""},"geometry":{"type":"Point","coordinates":[110.735833,27.880556]}},{"type":"Feature","properties":{"UserID":0,"区域站级别":"骨干站","OBTID":"P4001","OBTName":"五强溪站","CityName":"怀化市","CountyName":"沅陵县","Height":71.0,"TownShipName":"五强溪镇","Lon":111.012222,"Lat":28.800833,"remark":""},"geometry":{"type":"Point","coordinates":[111.012222,28.800833]}},{"type":"Feature","properties":{"UserID":0,"区域站级别":"骨干站","OBTID":"P4561","OBTName":"龙山林场","CityName":"娄底市","CountyName":"涟源市","Height":710.0,"TownShipName":"龙山国家森林公园","Lon":111.782222,"Lat":27.563056,"remark":""},"geometry":{"type":"Point","coordinates":[111.782222,27.563056]}},{"type":"Feature","properties":{"UserID":0,"区域站级别":"骨干站","OBTID":"P4516","OBTName":"金竹山","CityName":"娄底市","CountyName":"冷水江市","Height":210.0,"TownShipName":"金竹山镇","Lon":111.477778,"Lat":27.622222,"remark":""},"geometry":{"type":"Point","coordinates":[111.477778,27.622222]}},{"type":"Feature","properties":{"UserID":0,"区域站级别":"骨干站","OBTID":"P4565","OBTName":"安平","CityName":"娄底市","CountyName":"涟源市","Height":190.0,"TownShipName":"安平镇","Lon":111.691111,"Lat":27.819167,"remark":""},"geometry":{"type":"Point","coordinates":[111.691111,27.819167]}},{"type":"Feature","properties":{"UserID":0,"区域站级别":"骨干站","OBTID":"P4580","OBTName":"桥头河","CityName":"娄底市","CountyName":"涟源市","Height":133.0,"TownShipName":"桥头河镇","Lon":111.847222,"Lat":27.843889,"remark":""},"geometry":{"type":"Point","coordinates":[111.847222,27.843889]}},{"type":"Feature","properties":{"UserID":0,"区域站级别":"骨干站","OBTID":"P4583","OBTName":"漆树","CityName":"娄底市","CountyName":"涟源市","Height":526.0,"TownShipName":"伏口镇","Lon":111.665556,"Lat":27.9825,"remark":""},"geometry":{"type":"Point","coordinates":[111.665556,27.9825]}},{"type":"Feature","properties":{"UserID":0,"区域站级别":"骨干站","OBTID":"P3728","OBTName":"张家滩站","CityName":"怀化市","CountyName":"沅陵县","Height":276.0,"TownShipName":"凉水井镇","Lon":110.515833,"Lat":28.329444,"remark":""},"geometry":{"type":"Point","coordinates":[110.515833,28.329444]}},{"type":"Feature","properties":{"UserID":0,"区域站级别":"骨干站","OBTID":"P4070","OBTName":"长界站","CityName":"怀化市","CountyName":"沅陵县","Height":301.0,"TownShipName":"马底驿乡","Lon":110.635278,"Lat":28.524167,"remark":""},"geometry":{"type":"Point","coordinates":[110.635278,28.524167]}},{"type":"Feature","properties":{"UserID":0,"区域站级别":"骨干站","OBTID":"P6351","OBTName":"诸甲亭","CityName":"邵阳市","CountyName":"邵阳县","Height":307.3,"TownShipName":"诸甲亭乡","Lon":111.575,"Lat":27.0175,"remark":""},"geometry":{"type":"Point","coordinates":[111.575,27.0175]}},{"type":"Feature","properties":{"UserID":0,"区域站级别":"骨干站","OBTID":"P6342","OBTName":"黄亭市","CityName":"邵阳市","CountyName":"邵阳县","Height":294.0,"TownShipName":"黄亭市镇","Lon":111.141667,"Lat":26.990278,"remark":""},"geometry":{"type":"Point","coordinates":[111.141667,26.990278]}},{"type":"Feature","properties":{"UserID":0,"区域站级别":"骨干站","OBTID":"P6311","OBTName":"山门","CityName":"邵阳市","CountyName":"洞口县","Height":340.0,"TownShipName":"山门镇","Lon":110.667778,"Lat":27.223889,"remark":""},"geometry":{"type":"Point","coordinates":[110.667778,27.223889]}},{"type":"Feature","properties":{"UserID":0,"区域站级别":"骨干站","OBTID":"P6306","OBTName":"黄桥","CityName":"邵阳市","CountyName":"洞口县","Height":289.4,"TownShipName":"黄桥镇","Lon":110.845833,"Lat":27.029167,"remark":""},"geometry":{"type":"Point","coordinates":[110.845833,27.029167]}},{"type":"Feature","properties":{"UserID":0,"区域站级别":"骨干站","OBTID":"P6315","OBTName":"黑石村","CityName":"邵阳市","CountyName":"洞口县","Height":310.0,"TownShipName":"竹市镇","Lon":110.726944,"Lat":27.010278,"remark":""},"geometry":{"type":"Point","coordinates":[110.726944,27.010278]}},{"type":"Feature","properties":{"UserID":0,"区域站级别":"骨干站","OBTID":"P6312","OBTName":"江口","CityName":"邵阳市","CountyName":"洞口县","Height":525.6,"TownShipName":"江口镇","Lon":110.403333,"Lat":27.186944,"remark":""},"geometry":{"type":"Point","coordinates":[110.403333,27.186944]}},{"type":"Feature","properties":{"UserID":0,"区域站级别":"骨干站","OBTID":"P6445","OBTName":"佘田桥","CityName":"邵阳市","CountyName":"邵东市","Height":185.6,"TownShipName":"佘田桥镇","Lon":111.935,"Lat":27.125278,"remark":""},"geometry":{"type":"Point","coordinates":[111.935,27.125278]}},{"type":"Feature","properties":{"UserID":0,"区域站级别":"骨干站","OBTID":"P6480","OBTName":"黄桑","CityName":"邵阳市","CountyName":"绥宁县","Height":504.0,"TownShipName":"寨市乡","Lon":110.05,"Lat":26.433333,"remark":""},"geometry":{"type":"Point","coordinates":[110.05,26.433333]}},{"type":"Feature","properties":{"UserID":0,"区域站级别":"骨干站","OBTID":"P6481","OBTName":"麻塘","CityName":"邵阳市","CountyName":"绥宁县","Height":587.0,"TownShipName":"麻塘乡","Lon":110.076111,"Lat":26.819167,"remark":""},"geometry":{"type":"Point","coordinates":[110.076111,26.819167]}},{"type":"Feature","properties":{"UserID":0,"区域站级别":"骨干站","OBTID":"P6444","OBTName":"廉桥","CityName":"邵阳市","CountyName":"邵东市","Height":276.2,"TownShipName":"廉桥镇","Lon":111.868056,"Lat":27.333056,"remark":""},"geometry":{"type":"Point","coordinates":[111.868056,27.333056]}},{"type":"Feature","properties":{"UserID":0,"区域站级别":"骨干站","OBTID":"P6201","OBTName":"小沙江","CityName":"邵阳市","CountyName":"隆回县","Height":1350.0,"TownShipName":"小沙江镇","Lon":110.769444,"Lat":27.526111,"remark":""},"geometry":{"type":"Point","coordinates":[110.769444,27.526111]}},{"type":"Feature","properties":{"UserID":0,"区域站级别":"骨干站","OBTID":"P6211","OBTName":"岩口","CityName":"邵阳市","CountyName":"隆回县","Height":339.0,"TownShipName":"岩口镇","Lon":111.092222,"Lat":27.356944,"remark":""},"geometry":{"type":"Point","coordinates":[111.092222,27.356944]}},{"type":"Feature","properties":{"UserID":0,"区域站级别":"骨干站","OBTID":"P6215","OBTName":"鸭田","CityName":"邵阳市","CountyName":"隆回县","Height":272.0,"TownShipName":"鸭田镇","Lon":110.978611,"Lat":27.593333,"remark":""},"geometry":{"type":"Point","coordinates":[110.978611,27.593333]}},{"type":"Feature","properties":{"UserID":0,"区域站级别":"骨干站","OBTID":"P6264","OBTName":"高家坳","CityName":"邵阳市","CountyName":"新邵县","Height":310.0,"TownShipName":"巨口铺镇","Lon":111.273889,"Lat":27.399167,"remark":""},"geometry":{"type":"Point","coordinates":[111.273889,27.399167]}},{"type":"Feature","properties":{"UserID":0,"区域站级别":"骨干站","OBTID":"P6248","OBTName":"寸石","CityName":"邵阳市","CountyName":"新邵县","Height":343.0,"TownShipName":"寸石镇","Lon":111.575,"Lat":27.503889,"remark":""},"geometry":{"type":"Point","coordinates":[111.575,27.503889]}},{"type":"Feature","properties":{"UserID":0,"区域站级别":"骨干站","OBTID":"P6225","OBTName":"六都寨","CityName":"邵阳市","CountyName":"隆回县","Height":302.0,"TownShipName":"六都寨镇","Lon":110.935556,"Lat":27.368889,"remark":""},"geometry":{"type":"Point","coordinates":[110.935556,27.368889]}},{"type":"Feature","properties":{"UserID":0,"区域站级别":"骨干站","OBTID":"P6260","OBTName":"陈家坊","CityName":"邵阳市","CountyName":"新邵县","Height":310.0,"TownShipName":"潭府乡","Lon":111.677778,"Lat":27.378889,"remark":""},"geometry":{"type":"Point","coordinates":[111.677778,27.378889]}}]}